{
 "country": "IT",
 "source": "wikidata",
 "count": 5925,
 "pois": [
  {
   "id": "wd-Q105906795",
   "name": "Campanaccio",
   "lat": 43.110047,
   "lng": 12.790482,
   "country_code": "IT",
   "category": "monumento",
   "type": "atracción turística",
   "wikidata": "Q105906795",
   "image_url": "http://commons.wikimedia.org/wiki/Special:FilePath/Campanaccio%20di%20Nocera%20Umbra%20%28PG%29.JPG",
   "unesco": false
  },
  {
   "id": "wd-Q111660061",
   "name": "Torre dell'Orologio",
   "lat": 40.705648,
   "lng": 17.336555,
   "country_code": "IT",
   "category": "monumento",
   "type": "atracción turística",
   "wikidata": "Q111660061",
   "image_url": "http://commons.wikimedia.org/wiki/Special:FilePath/Martina%20Franca%20%28TA%29%20-%20torre%20orologio.JPG",
   "unesco": true
  },
  {
   "id": "wd-Q19367441",
   "name": "Civic Tower of Varese",
   "lat": 45.81724,
   "lng": 8.825682,
   "country_code": "IT",
   "category": "monumento",
   "type": "atracción turística",
   "wikidata": "Q19367441",
   "image_url": "http://commons.wikimedia.org/wiki/Special:FilePath/TorreCivicaVarese2.jpg",
   "unesco": false
  },
  {
   "id": "wd-Q33136697",
   "name": "Torre civica",
   "lat": 45.80175,
   "lng": 11.912556,
   "country_code": "IT",
   "category": "monumento",
   "type": "atracción turística",
   "wikidata": "Q33136697",
   "image_url": "http://commons.wikimedia.org/wiki/Special:FilePath/Vista%20sulla%20Loggia%2C%20Asolo.jpg",
   "unesco": true
  },
  {
   "id": "wd-Q125473459",
   "name": "civic tower",
   "lat": 45.453986,
   "lng": 10.412917,
   "country_code": "IT",
   "category": "monumento",
   "type": "atracción turística",
   "wikidata": "Q125473459",
   "image_url": "http://commons.wikimedia.org/wiki/Special:FilePath/Calcinato%20-%20Torre%20civica%2001.jpg",
   "unesco": false
  },
  {
   "id": "wd-Q105598109",
   "name": "Torre dell'Orologio",
   "lat": 44.029898,
   "lng": 12.240907,
   "country_code": "IT",
   "category": "monumento",
   "type": "atracción turística",
   "wikidata": "Q105598109",
   "image_url": null,
   "unesco": true
  },
  {
   "id": "wd-Q18224728",
   "name": "Civic Tower",
   "lat": 45.555936,
   "lng": 8.980831,
   "country_code": "IT",
   "category": "monumento",
   "type": "atracción turística",
   "wikidata": "Q18224728",
   "image_url": "http://commons.wikimedia.org/wiki/Special:FilePath/NervianoTorre.jpg",
   "unesco": true
  },
  {
   "id": "wd-Q69139346",
   "name": "Bussi Fountain",
   "lat": 41.646278,
   "lng": 13.351117,
   "country_code": "IT",
   "category": "monumento",
   "type": "atracción turística",
   "wikidata": "Q69139346",
   "image_url": "http://commons.wikimedia.org/wiki/Special:FilePath/Fontana%20Bussi.JPG",
   "unesco": true
  },
  {
   "id": "wd-Q59618718",
   "name": "torre civica di San Leo",
   "lat": 43.897271,
   "lng": 12.342453,
   "country_code": "IT",
   "category": "monumento",
   "type": "atracción turística",
   "wikidata": "Q59618718",
   "image_url": "http://commons.wikimedia.org/wiki/Special:FilePath/San%20Leo%2C%20torre%20civica%20%2809%29.jpg",
   "unesco": false
  },
  {
   "id": "wd-Q57829330",
   "name": "Torre Civica (Borgo Sacco)",
   "lat": 45.88491,
   "lng": 11.01778,
   "country_code": "IT",
   "category": "monumento",
   "type": "atracción turística",
   "wikidata": "Q57829330",
   "image_url": "http://commons.wikimedia.org/wiki/Special:FilePath/Piazzafilzi.jpg",
   "unesco": false
  },
  {
   "id": "wd-Q116944991",
   "name": "Torre dell'orologio",
   "lat": 40.741586,
   "lng": 17.426443,
   "country_code": "IT",
   "category": "monumento",
   "type": "atracción turística",
   "wikidata": "Q116944991",
   "image_url": "http://commons.wikimedia.org/wiki/Special:FilePath/Torre%20dell%27Orologio%20%28Cisternino%29.jpg",
   "unesco": false
  },
  {
   "id": "wd-Q27994527",
   "name": "Civic Tower",
   "lat": 43.612378,
   "lng": 13.158075,
   "country_code": "IT",
   "category": "monumento",
   "type": "atracción turística",
   "wikidata": "Q27994527",
   "image_url": "http://commons.wikimedia.org/wiki/Special:FilePath/Torre%20civica%20Ostra.jpg",
   "unesco": true
  },
  {
   "id": "wd-Q27994500",
   "name": "civic tower",
   "lat": 46.138334,
   "lng": 12.21733,
   "country_code": "IT",
   "category": "monumento",
   "type": "atracción turística",
   "wikidata": "Q27994500",
   "image_url": "http://commons.wikimedia.org/wiki/Special:FilePath/Torre%20Civica%20lato%20ovest%20e%20sud.jpg",
   "unesco": true
  },
  {
   "id": "wd-Q137972298",
   "name": "civic tower",
   "lat": 45.918669,
   "lng": 11.952803,
   "country_code": "IT",
   "category": "monumento",
   "type": "atracción turística",
   "wikidata": "Q137972298",
   "image_url": "http://commons.wikimedia.org/wiki/Special:FilePath/Segusino%20-%20Torre%20civica%2002.jpg",
   "unesco": false
  },
  {
   "id": "wd-Q87055131",
   "name": "Valstagna civic tower",
   "lat": 45.8604,
   "lng": 11.65836,
   "country_code": "IT",
   "category": "monumento",
   "type": "atracción turística",
   "wikidata": "Q87055131",
   "image_url": "http://commons.wikimedia.org/wiki/Special:FilePath/Valstagna%20-%20Torre%20civica.jpg",
   "unesco": true
  },
  {
   "id": "wd-Q56258673",
   "name": "civic tower clock",
   "lat": 45.03454,
   "lng": 10.54538,
   "country_code": "IT",
   "category": "monumento",
   "type": "atracción turística",
   "wikidata": "Q56258673",
   "image_url": "http://commons.wikimedia.org/wiki/Special:FilePath/Commessaggio%20%28Mn%29%20-%20Il%20palazzo%20comunale%2003%20-%20Torre%20dell%27%20orologio.JPG",
   "unesco": false
  },
  {
   "id": "wd-Q27994131",
   "name": "Comacchio tower",
   "lat": 44.694764,
   "lng": 12.18305,
   "country_code": "IT",
   "category": "monumento",
   "type": "atracción turística",
   "wikidata": "Q27994131",
   "image_url": "http://commons.wikimedia.org/wiki/Special:FilePath/Comacchio%2C%20torre%20dell%27Orologio%20%2802%29.jpg",
   "unesco": true
  },
  {
   "id": "wd-Q3532440",
   "name": "Torre civica",
   "lat": 43.457433,
   "lng": 12.238096,
   "country_code": "IT",
   "category": "monumento",
   "type": "atracción turística",
   "wikidata": "Q3532440",
   "image_url": "http://commons.wikimedia.org/wiki/Special:FilePath/Panorama%20Citt%C3%A0%20di%20Castello%2011.jpg",
   "unesco": false
  },
  {
   "id": "wd-Q56599024",
   "name": "Torre dell'orologio",
   "lat": 44.44226,
   "lng": 11.861324,
   "country_code": "IT",
   "category": "monumento",
   "type": "atracción turística",
   "wikidata": "Q56599024",
   "image_url": "http://commons.wikimedia.org/wiki/Special:FilePath/Torre%20civica%20%28o%20Torre%20dell%27Orologio%29%20-%20Sant%27Agata%20sul%20Santerno%20%28RA%29%205.jpg",
   "unesco": true
  },
  {
   "id": "wd-Q55115919",
   "name": "Civic and Clock Tower",
   "lat": 43.676529,
   "lng": 10.546895,
   "country_code": "IT",
   "category": "monumento",
   "type": "atracción turística",
   "wikidata": "Q55115919",
   "image_url": "http://commons.wikimedia.org/wiki/Special:FilePath/01%20Cascina%20Torre%20Orologio.jpg",
   "unesco": true
  },
  {
   "id": "wd-Q106049831",
   "name": "Torre Civica",
   "lat": 44.905028,
   "lng": 10.629579,
   "country_code": "IT",
   "category": "monumento",
   "type": "atracción turística",
   "wikidata": "Q106049831",
   "image_url": "http://commons.wikimedia.org/wiki/Special:FilePath/Torre%20civica%20%28Gualtieri%29%20-%20lato%20ovest%202022-07-13.jpg",
   "unesco": true
  },
  {
   "id": "wd-Q113438431",
   "name": "civic tower",
   "lat": 45.309553,
   "lng": 11.385205,
   "country_code": "IT",
   "category": "monumento",
   "type": "atracción turística",
   "wikidata": "Q113438431",
   "image_url": "http://commons.wikimedia.org/wiki/Special:FilePath/Cologna%20Veneta%20-%20Torre%20civica%2002.jpg",
   "unesco": true
  },
  {
   "id": "wd-Q120829227",
   "name": "civic tower",
   "lat": 45.461034,
   "lng": 10.5681,
   "country_code": "IT",
   "category": "monumento",
   "type": "atracción turística",
   "wikidata": "Q120829227",
   "image_url": "http://commons.wikimedia.org/wiki/Special:FilePath/Rivoltella%20del%20Garda%20-%20Torre%20civica.jpg",
   "unesco": false
  },
  {
   "id": "wd-Q30134634",
   "name": "Torre Civica",
   "lat": 43.475557,
   "lng": 10.72782,
   "country_code": "IT",
   "category": "monumento",
   "type": "atracción turística",
   "wikidata": "Q30134634",
   "image_url": "http://commons.wikimedia.org/wiki/Special:FilePath/Lajatico%2C%20castello%20e%20torre%20dell%27orologio%2001.JPG",
   "unesco": true
  },
  {
   "id": "wd-Q27994330",
   "name": "Torre dell'orologio",
   "lat": 40.924573,
   "lng": 15.675482,
   "country_code": "IT",
   "category": "monumento",
   "type": "atracción turística",
   "wikidata": "Q27994330",
   "image_url": "http://commons.wikimedia.org/wiki/Special:FilePath/Torre%20dell%27orologio%20vista%20dal%20basso.jpg",
   "unesco": true
  },
  {
   "id": "wd-Q112730588",
   "name": "Torre Civica",
   "lat": 44.39308,
   "lng": 7.55175,
   "country_code": "IT",
   "category": "monumento",
   "type": "atracción turística",
   "wikidata": "Q112730588",
   "image_url": "http://commons.wikimedia.org/wiki/Special:FilePath/Cuneo%20Torre.jpeg",
   "unesco": true
  },
  {
   "id": "wd-Q56612628",
   "name": "Torre civica",
   "lat": 44.416096,
   "lng": 11.977047,
   "country_code": "IT",
   "category": "monumento",
   "type": "atracción turística",
   "wikidata": "Q56612628",
   "image_url": "http://commons.wikimedia.org/wiki/Special:FilePath/La%20torre%20civica%20dal%20basso.jpg",
   "unesco": true
  },
  {
   "id": "wd-Q99705128",
   "name": "Torre dell'orologio",
   "lat": 44.230466,
   "lng": 10.771131,
   "country_code": "IT",
   "category": "monumento",
   "type": "atracción turística",
   "wikidata": "Q99705128",
   "image_url": "http://commons.wikimedia.org/wiki/Special:FilePath/Torre%20dell%27orologio%2C%20Sestola%20abc1.jpg",
   "unesco": true
  },
  {
   "id": "wd-Q27993670",
   "name": "Torre civica",
   "lat": 44.89362,
   "lng": 10.900706,
   "country_code": "IT",
   "category": "monumento",
   "type": "atracción turística",
   "wikidata": "Q27993670",
   "image_url": "http://commons.wikimedia.org/wiki/Special:FilePath/Torre%20civica%20novi%20di%20modena.JPG",
   "unesco": true
  },
  {
   "id": "wd-Q112319531",
   "name": "Broletto tower of Como",
   "lat": 45.811931,
   "lng": 9.082903,
   "country_code": "IT",
   "category": "monumento",
   "type": "atracción turística",
   "wikidata": "Q112319531",
   "image_url": "http://commons.wikimedia.org/wiki/Special:FilePath/Torre%20del%20Broletto.jpg",
   "unesco": true
  },
  {
   "id": "wd-Q55391966",
   "name": "Torre civica",
   "lat": 45.767177,
   "lng": 11.735255,
   "country_code": "IT",
   "category": "monumento",
   "type": "atracción turística",
   "wikidata": "Q55391966",
   "image_url": "http://commons.wikimedia.org/wiki/Special:FilePath/Bassano%20del%20Grappa%20136%20%288189063586%29.jpg",
   "unesco": true
  },
  {
   "id": "wd-Q108430006",
   "name": "Torre Civica",
   "lat": 45.888285,
   "lng": 11.045174,
   "country_code": "IT",
   "category": "monumento",
   "type": "atracción turística",
   "wikidata": "Q108430006",
   "image_url": "http://commons.wikimedia.org/wiki/Special:FilePath/Rovereto%20-%20Torre%20civica%2001.jpg",
   "unesco": false
  },
  {
   "id": "wd-Q3995324",
   "name": "Torre Cívica de Forlí",
   "lat": 44.223052,
   "lng": 12.039904,
   "country_code": "IT",
   "category": "monumento",
   "type": "atracción turística",
   "wikidata": "Q3995324",
   "image_url": "http://commons.wikimedia.org/wiki/Special:FilePath/Palazzo%20Comunale%20-%20Forl%C3%AC.jpg",
   "unesco": false
  },
  {
   "id": "wd-Q105597809",
   "name": "Torre Civica",
   "lat": 45.977316,
   "lng": 11.08945,
   "country_code": "IT",
   "category": "monumento",
   "type": "atracción turística",
   "wikidata": "Q105597809",
   "image_url": "http://commons.wikimedia.org/wiki/Special:FilePath/Aldeno%20-%20Torre%20civica%2001.jpg",
   "unesco": false
  },
  {
   "id": "wd-Q3995322",
   "name": "Civic Tower (Castel Goffredo)",
   "lat": 45.298248,
   "lng": 10.474776,
   "country_code": "IT",
   "category": "monumento",
   "type": "atracción turística",
   "wikidata": "Q3995322",
   "image_url": "http://commons.wikimedia.org/wiki/Special:FilePath/Castel%20Goffredo-Torre%20civica.jpg",
   "unesco": true
  },
  {
   "id": "wd-Q17377467",
   "name": "Torre Civica",
   "lat": 45.6661,
   "lng": 12.2455,
   "country_code": "IT",
   "category": "monumento",
   "type": "atracción turística",
   "wikidata": "Q17377467",
   "image_url": "http://commons.wikimedia.org/wiki/Special:FilePath/I-TV-Treviso14.JPG",
   "unesco": false
  },
  {
   "id": "wd-Q54870421",
   "name": "Torre civica",
   "lat": 43.403397,
   "lng": 13.54851,
   "country_code": "IT",
   "category": "monumento",
   "type": "atracción turística",
   "wikidata": "Q54870421",
   "image_url": "http://commons.wikimedia.org/wiki/Special:FilePath/Torre%20in%20Piazza%20Giacomo%20Leopardi.jpg",
   "unesco": true
  },
  {
   "id": "wd-Q27993896",
   "name": "Torre civica",
   "lat": 44.52932,
   "lng": 7.94785,
   "country_code": "IT",
   "category": "monumento",
   "type": "atracción turística",
   "wikidata": "Q27993896",
   "image_url": "http://commons.wikimedia.org/wiki/Special:FilePath/Civic%20Tower%20of%20Dogliani.jpg",
   "unesco": true
  },
  {
   "id": "wd-Q55193865",
   "name": "Torre civica",
   "lat": 42.173729,
   "lng": 13.832572,
   "country_code": "IT",
   "category": "monumento",
   "type": "atracción turística",
   "wikidata": "Q55193865",
   "image_url": "http://commons.wikimedia.org/wiki/Special:FilePath/Popoli%202011%20by-RaBoe%20051.jpg",
   "unesco": false
  },
  {
   "id": "wd-Q27994493",
   "name": "Porta Vecchia civic tower",
   "lat": 45.227253,
   "lng": 11.65434,
   "country_code": "IT",
   "category": "monumento",
   "type": "atracción turística",
   "wikidata": "Q27994493",
   "image_url": "http://commons.wikimedia.org/wiki/Special:FilePath/Este%20-%20Torre%20Civica%20di%20Porta%20Vecchia%201.jpg",
   "unesco": true
  },
  {
   "id": "wd-Q3995320",
   "name": "Torre civica",
   "lat": 42.351016,
   "lng": 13.398099,
   "country_code": "IT",
   "category": "monumento",
   "type": "atracción turística",
   "wikidata": "Q3995320",
   "image_url": "http://commons.wikimedia.org/wiki/Special:FilePath/Particolare%20Torre%20del%20Palazzo%20Civico%20AQ.JPG",
   "unesco": false
  },
  {
   "id": "wd-Q22305527",
   "name": "Torre Civica (Trento)",
   "lat": 46.067585,
   "lng": 11.121919,
   "country_code": "IT",
   "category": "monumento",
   "type": "atracción turística",
   "wikidata": "Q22305527",
   "image_url": "http://commons.wikimedia.org/wiki/Special:FilePath/Trento-Torre%20civica.jpg",
   "unesco": true
  },
  {
   "id": "wd-Q27994241",
   "name": "Torre Civica",
   "lat": 42.87724,
   "lng": 12.74771,
   "country_code": "IT",
   "category": "monumento",
   "type": "atracción turística",
   "wikidata": "Q27994241",
   "image_url": "http://commons.wikimedia.org/wiki/Special:FilePath/Trevi%2C%20torre%20civica%2005.jpg",
   "unesco": true
  },
  {
   "id": "wd-Q55179473",
   "name": "Torre dell'Orologio",
   "lat": 43.95695,
   "lng": 10.23161,
   "country_code": "IT",
   "category": "monumento",
   "type": "atracción turística",
   "wikidata": "Q55179473",
   "image_url": "http://commons.wikimedia.org/wiki/Special:FilePath/Pietrasanta-torre%20dell%27orologio1.jpg",
   "unesco": true
  },
  {
   "id": "wd-Q27994535",
   "name": "Torre di Piazza",
   "lat": 45.59734,
   "lng": 8.63716,
   "country_code": "IT",
   "category": "monumento",
   "type": "atracción turística",
   "wikidata": "Q27994535",
   "image_url": "http://commons.wikimedia.org/wiki/Special:FilePath/Oleggio%20TorreCampanaria.jpg",
   "unesco": true
  },
  {
   "id": "wd-Q56695835",
   "name": "Civic tower",
   "lat": 40.94133,
   "lng": 14.2722,
   "country_code": "IT",
   "category": "monumento",
   "type": "atracción turística",
   "wikidata": "Q56695835",
   "image_url": null,
   "unesco": true
  },
  {
   "id": "wd-Q27993851",
   "name": "torre civica",
   "lat": 41.71365,
   "lng": 14.295052,
   "country_code": "IT",
   "category": "monumento",
   "type": "atracción turística",
   "wikidata": "Q27993851",
   "image_url": "http://commons.wikimedia.org/wiki/Special:FilePath/Torre%20piazza.JPG",
   "unesco": true
  },
  {
   "id": "wd-Q113459151",
   "name": "Torre dell'Orologio",
   "lat": 43.968322,
   "lng": 10.640889,
   "country_code": "IT",
   "category": "monumento",
   "type": "atracción turística",
   "wikidata": "Q113459151",
   "image_url": "http://commons.wikimedia.org/wiki/Special:FilePath/Torre%20dell%27Orologio%20%28Boveglio%29%2002.jpg",
   "unesco": true
  },
  {
   "id": "wd-Q53673164",
   "name": "torre civica",
   "lat": 42.772346,
   "lng": 13.2965,
   "country_code": "IT",
   "category": "monumento",
   "type": "atracción turística",
   "wikidata": "Q53673164",
   "image_url": "http://commons.wikimedia.org/wiki/Special:FilePath/Arquata%20del%20Tronto%20-%20torre%20civica.jpg",
   "unesco": true
  },
  {
   "id": "wd-Q106082257",
   "name": "Torre civica di Palazzo Ordelaffi",
   "lat": 44.149174,
   "lng": 12.133451,
   "country_code": "IT",
   "category": "monumento",
   "type": "atracción turística",
   "wikidata": "Q106082257",
   "image_url": null,
   "unesco": true
  },
  {
   "id": "wd-Q136811900",
   "name": "Torre civica",
   "lat": 44.544233,
   "lng": 7.538167,
   "country_code": "IT",
   "category": "monumento",
   "type": "atracción turística",
   "wikidata": "Q136811900",
   "image_url": "http://commons.wikimedia.org/wiki/Special:FilePath/Torre%20civica%2C%20Villafalletto%2C%20Piemonte.jpg",
   "unesco": false
  },
  {
   "id": "wd-Q27994583",
   "name": "Torre civica",
   "lat": 44.919687,
   "lng": 10.652214,
   "country_code": "IT",
   "category": "monumento",
   "type": "atracción turística",
   "wikidata": "Q27994583",
   "image_url": "http://commons.wikimedia.org/wiki/Special:FilePath/Torre%20civica%20%28Guastalla%29%20-%20lati%20sud%20ed%20est%201%202022-07-13.jpg",
   "unesco": true
  },
  {
   "id": "wd-Q56437076",
   "name": "Torre campanaria",
   "lat": 44.638251,
   "lng": 11.187496,
   "country_code": "IT",
   "category": "monumento",
   "type": "atracción turística",
   "wikidata": "Q56437076",
   "image_url": "http://commons.wikimedia.org/wiki/Special:FilePath/Uno%20sguardo%20dal%20basso%20verso%20l%27alto.jpg",
   "unesco": true
  },
  {
   "id": "wd-Q106310837",
   "name": "Torre Civica",
   "lat": 43.067517,
   "lng": 13.656354,
   "country_code": "IT",
   "category": "monumento",
   "type": "atracción turística",
   "wikidata": "Q106310837",
   "image_url": "http://commons.wikimedia.org/wiki/Special:FilePath/Petritoli%2C%20Torre%20Civica.JPG",
   "unesco": false
  },
  {
   "id": "wd-Q56697137",
   "name": "clock tower",
   "lat": 40.557076,
   "lng": 16.663651,
   "country_code": "IT",
   "category": "monumento",
   "type": "atracción turística",
   "wikidata": "Q56697137",
   "image_url": "http://commons.wikimedia.org/wiki/Special:FilePath/Campanile%20Orologio.jpg",
   "unesco": true
  },
  {
   "id": "wd-Q3995171",
   "name": "Campanone",
   "lat": 45.70392,
   "lng": 9.66229,
   "country_code": "IT",
   "category": "monumento",
   "type": "atracción turística",
   "wikidata": "Q3995171",
   "image_url": "http://commons.wikimedia.org/wiki/Special:FilePath/Campanone%20Bergamo.jpg",
   "unesco": true
  },
  {
   "id": "wd-Q54864222",
   "name": "Torre Civica",
   "lat": 43.300198,
   "lng": 13.453466,
   "country_code": "IT",
   "category": "monumento",
   "type": "atracción turística",
   "wikidata": "Q54864222",
   "image_url": "http://commons.wikimedia.org/wiki/Special:FilePath/Torre%20civica%20Macerata.jpg",
   "unesco": true
  },
  {
   "id": "wd-Q56704909",
   "name": "Conselice civic tower",
   "lat": 44.51353,
   "lng": 11.82886,
   "country_code": "IT",
   "category": "monumento",
   "type": "atracción turística",
   "wikidata": "Q56704909",
   "image_url": null,
   "unesco": true
  },
  {
   "id": "wd-Q3995321",
   "name": "Torre civica",
   "lat": 44.961148,
   "lng": 10.686566,
   "country_code": "IT",
   "category": "monumento",
   "type": "atracción turística",
   "wikidata": "Q3995321",
   "image_url": "http://commons.wikimedia.org/wiki/Special:FilePath/Torre%20civica%20%28Luzzara%29%20-%20lati%20sud-ovest%20e%20nord-ovest%202025-08-31.jpg",
   "unesco": true
  },
  {
   "id": "wd-Q16617025",
   "name": "Torre di Santo Stefano",
   "lat": 44.620993,
   "lng": 11.669109,
   "country_code": "IT",
   "category": "monumento",
   "type": "atracción turística",
   "wikidata": "Q16617025",
   "image_url": "http://commons.wikimedia.org/wiki/Special:FilePath/Molinella%20Torre%20Santo%20Stefano.jpg",
   "unesco": true
  },
  {
   "id": "wd-Q55183268",
   "name": "Torre dell'Orologio",
   "lat": 44.060382,
   "lng": 11.842608,
   "country_code": "IT",
   "category": "monumento",
   "type": "atracción turística",
   "wikidata": "Q55183268",
   "image_url": "http://commons.wikimedia.org/wiki/Special:FilePath/Torre%20dell%27Orologio%20o%20Torre%20Civica%20%28Rocca%20San%20Casciano%29%2002.jpg",
   "unesco": true
  },
  {
   "id": "wd-Q42378050",
   "name": "Finkenhof House",
   "lat": 46.315158,
   "lng": 11.222727,
   "country_code": "IT",
   "category": "monumento",
   "type": "atracción turística",
   "wikidata": "Q42378050",
   "image_url": "http://commons.wikimedia.org/wiki/Special:FilePath/Kurtatsch%20Obergasse%2016-18.jpg",
   "unesco": true
  },
  {
   "id": "wd-Q66314349",
   "name": "Largo Grotta Ardito",
   "lat": 40.996585,
   "lng": 17.223206,
   "country_code": "IT",
   "category": "monumento",
   "type": "atracción turística",
   "wikidata": "Q66314349",
   "image_url": "http://commons.wikimedia.org/wiki/Special:FilePath/Largo%20Grotta%20Ardito.jpg",
   "unesco": true
  },
  {
   "id": "wd-Q137593906",
   "name": "Loggetta",
   "lat": 44.12983,
   "lng": 8.261009,
   "country_code": "IT",
   "category": "monumento",
   "type": "atracción turística",
   "wikidata": "Q137593906",
   "image_url": "http://commons.wikimedia.org/wiki/Special:FilePath/A%20Log%C3%A9tta%20%28L%C3%AAua%29%20-%20v%C3%ACsta%20d%27in%20Pal%C3%A0%C3%A7io%20D%C3%B6ia%20%281%29.jpg",
   "unesco": true
  },
  {
   "id": "wd-Q510041",
   "name": "Porciúncula",
   "lat": 43.058196,
   "lng": 12.580268,
   "country_code": "IT",
   "category": "monumento",
   "type": "atracción turística",
   "wikidata": "Q510041",
   "image_url": "http://commons.wikimedia.org/wiki/Special:FilePath/Portiuncula%20on%20the%20Feast%20of%20the%20Pardon.jpg",
   "unesco": false
  },
  {
   "id": "wd-Q66625130",
   "name": "Osservatorio multifunzionale",
   "lat": 46.03312,
   "lng": 9.16024,
   "country_code": "IT",
   "category": "monumento",
   "type": "atracción turística",
   "wikidata": "Q66625130",
   "image_url": "http://commons.wikimedia.org/wiki/Special:FilePath/Carlazzo%20-%20Osservatorio%20multifunzionale%20%281%29.jpg",
   "unesco": false
  },
  {
   "id": "wd-Q3576051",
   "name": "Zoomarine",
   "lat": 41.633611,
   "lng": 12.456667,
   "country_code": "IT",
   "category": "monumento",
   "type": "atracción turística",
   "wikidata": "Q3576051",
   "image_url": "http://commons.wikimedia.org/wiki/Special:FilePath/Zoomarine%20-%20panoramio%20%282%29.jpg",
   "unesco": false
  },
  {
   "id": "wd-Q3585390",
   "name": "Sant'Agata in Trastevere",
   "lat": 41.889583,
   "lng": 12.473556,
   "country_code": "IT",
   "category": "monumento",
   "type": "atracción turística",
   "wikidata": "Q3585390",
   "image_url": "http://commons.wikimedia.org/wiki/Special:FilePath/Eglise%20Sant%27Agata%20in%20Trastevere%20de%20Rome.JPG",
   "unesco": true
  },
  {
   "id": "wd-Q287217",
   "name": "iSpeed",
   "lat": 44.336667,
   "lng": 12.261667,
   "country_code": "IT",
   "category": "monumento",
   "type": "atracción turística",
   "wikidata": "Q287217",
   "image_url": "http://commons.wikimedia.org/wiki/Special:FilePath/ISpeed02.JPG",
   "unesco": false
  },
  {
   "id": "wd-Q107299848",
   "name": "big bench (Clavesana)",
   "lat": 44.487721,
   "lng": 7.9293,
   "country_code": "IT",
   "category": "monumento",
   "type": "atracción turística",
   "wikidata": "Q107299848",
   "image_url": "http://commons.wikimedia.org/wiki/Special:FilePath/Panchina%20Rossa%20Clavesana.jpg",
   "unesco": false
  },
  {
   "id": "wd-Q111306942",
   "name": "big bench (Caraglio)",
   "lat": 44.420729,
   "lng": 7.425831,
   "country_code": "IT",
   "category": "monumento",
   "type": "atracción turística",
   "wikidata": "Q111306942",
   "image_url": "http://commons.wikimedia.org/wiki/Special:FilePath/Big%20bench%2C%20Caraglio.jpg",
   "unesco": false
  },
  {
   "id": "wd-Q67483866",
   "name": "big bench (Careggine)",
   "lat": 44.125469,
   "lng": 10.317859,
   "country_code": "IT",
   "category": "monumento",
   "type": "atracción turística",
   "wikidata": "Q67483866",
   "image_url": "http://commons.wikimedia.org/wiki/Special:FilePath/Vista%20sulle%20Apuane.jpg",
   "unesco": true
  },
  {
   "id": "wd-Q111468219",
   "name": "big bench (Riva di Solto)",
   "lat": 45.770234,
   "lng": 10.02551,
   "country_code": "IT",
   "category": "monumento",
   "type": "atracción turística",
   "wikidata": "Q111468219",
   "image_url": "http://commons.wikimedia.org/wiki/Special:FilePath/20220327-sicolo-080.jpg",
   "unesco": false
  },
  {
   "id": "wd-Q114035402",
   "name": "big bench (Cuccaro Monferrato)",
   "lat": 44.997713,
   "lng": 8.462795,
   "country_code": "IT",
   "category": "monumento",
   "type": "atracción turística",
   "wikidata": "Q114035402",
   "image_url": "http://commons.wikimedia.org/wiki/Special:FilePath/Panchina%20Gigante%20Cuccaro%20Monferrato.jpg",
   "unesco": false
  },
  {
   "id": "wd-Q125591916",
   "name": "Lourdes grotto in Ossola",
   "lat": 45.688771,
   "lng": 9.347044,
   "country_code": "IT",
   "category": "monumento",
   "type": "atracción turística",
   "wikidata": "Q125591916",
   "image_url": "http://commons.wikimedia.org/wiki/Special:FilePath/Lourdes%20Grotto%20%28Ossola%29%2002.jpg",
   "unesco": false
  },
  {
   "id": "wd-Q83551468",
   "name": "Aquapiper",
   "lat": 41.99528,
   "lng": 12.74392,
   "country_code": "IT",
   "category": "monumento",
   "type": "atracción turística",
   "wikidata": "Q83551468",
   "image_url": "http://commons.wikimedia.org/wiki/Special:FilePath/Aquapiper%20piscine.jpg",
   "unesco": false
  },
  {
   "id": "wd-Q56258187",
   "name": "Belvedere",
   "lat": 46.08994,
   "lng": 9.31092,
   "country_code": "IT",
   "category": "monumento",
   "type": "atracción turística",
   "wikidata": "Q56258187",
   "image_url": null,
   "unesco": false
  },
  {
   "id": "wd-Q7537977",
   "name": "Freestyle",
   "lat": 43.182194,
   "lng": 10.545028,
   "country_code": "IT",
   "category": "monumento",
   "type": "atracción turística",
   "wikidata": "Q7537977",
   "image_url": "http://commons.wikimedia.org/wiki/Special:FilePath/SkyRider.jpg",
   "unesco": false
  },
  {
   "id": "wd-Q1718332",
   "name": "Mammut",
   "lat": 45.457778,
   "lng": 10.7125,
   "country_code": "IT",
   "category": "monumento",
   "type": "atracción turística",
   "wikidata": "Q1718332",
   "image_url": "http://commons.wikimedia.org/wiki/Special:FilePath/Mammut%20Gardaland%202008.JPG",
   "unesco": false
  },
  {
   "id": "wd-Q2942704",
   "name": "San Giuliano Church",
   "lat": 43.3007,
   "lng": 13.4566,
   "country_code": "IT",
   "category": "monumento",
   "type": "atracción turística",
   "wikidata": "Q2942704",
   "image_url": "http://commons.wikimedia.org/wiki/Special:FilePath/Macerata%20-%20duomo%20di%20San%20Giuliano%20-%20facciata%20-%2001.jpg",
   "unesco": true
  },
  {
   "id": "wd-Q133730033",
   "name": "Terrace of Olive Trees",
   "lat": 40.732003,
   "lng": 13.965889,
   "country_code": "IT",
   "category": "monumento",
   "type": "atracción turística",
   "wikidata": "Q133730033",
   "image_url": "http://commons.wikimedia.org/wiki/Special:FilePath/Ischia%2C%20castello%20aragonese%2C%20terrazzo%20degli%20ulivi%2C%2001.jpg",
   "unesco": false
  },
  {
   "id": "wd-Q111279497",
   "name": "giant bench (Grone)",
   "lat": 45.744998,
   "lng": 9.933778,
   "country_code": "IT",
   "category": "monumento",
   "type": "atracción turística",
   "wikidata": "Q111279497",
   "image_url": "http://commons.wikimedia.org/wiki/Special:FilePath/20220313-sfermo-156.jpg",
   "unesco": false
  },
  {
   "id": "wd-Q111127423",
   "name": "big bench (Odalengo Grande)",
   "lat": 45.116862,
   "lng": 8.151376,
   "country_code": "IT",
   "category": "monumento",
   "type": "atracción turística",
   "wikidata": "Q111127423",
   "image_url": "http://commons.wikimedia.org/wiki/Special:FilePath/Panchina%20Gigante%20Odalengo%20Grande.jpg",
   "unesco": false
  },
  {
   "id": "wd-Q134547156",
   "name": "Lourdes grotto of Laorca",
   "lat": 45.879121,
   "lng": 9.404798,
   "country_code": "IT",
   "category": "monumento",
   "type": "atracción turística",
   "wikidata": "Q134547156",
   "image_url": "http://commons.wikimedia.org/wiki/Special:FilePath/Lourdes%20Grotto%20%28Laorca%2C%20Lecco%29%2002.jpg",
   "unesco": false
  },
  {
   "id": "wd-Q111378055",
   "name": "big bench (Peveragno)",
   "lat": 44.334697,
   "lng": 7.617219,
   "country_code": "IT",
   "category": "monumento",
   "type": "atracción turística",
   "wikidata": "Q111378055",
   "image_url": "http://commons.wikimedia.org/wiki/Special:FilePath/Big%20bench%2C%20Peveragno.jpg",
   "unesco": false
  },
  {
   "id": "wd-Q106412949",
   "name": "panoramic terrace on the river Vara",
   "lat": 44.250494,
   "lng": 9.68996,
   "country_code": "IT",
   "category": "monumento",
   "type": "atracción turística",
   "wikidata": "Q106412949",
   "image_url": "http://commons.wikimedia.org/wiki/Special:FilePath/Terrazza%20Panoramica%20sul%20fiume%20Vara.jpg",
   "unesco": true
  },
  {
   "id": "wd-Q3326929",
   "name": "Movieland Studios",
   "lat": 45.476976,
   "lng": 10.723051,
   "country_code": "IT",
   "category": "monumento",
   "type": "atracción turística",
   "wikidata": "Q3326929",
   "image_url": "http://commons.wikimedia.org/wiki/Special:FilePath/Ingresso%20Movieland%20The%20Hollywood%20Park.jpg",
   "unesco": false
  },
  {
   "id": "wd-Q787487",
   "name": "Sierra Tonante",
   "lat": 44.336128,
   "lng": 12.262031,
   "country_code": "IT",
   "category": "monumento",
   "type": "atracción turística",
   "wikidata": "Q787487",
   "image_url": "http://commons.wikimedia.org/wiki/Special:FilePath/Sierra-Tonante-Mirabilandia.jpg",
   "unesco": false
  },
  {
   "id": "wd-Q3576064",
   "name": "Zoosafari Fasanolandia",
   "lat": 40.8335,
   "lng": 17.3386,
   "country_code": "IT",
   "category": "monumento",
   "type": "atracción turística",
   "wikidata": "Q3576064",
   "image_url": "http://commons.wikimedia.org/wiki/Special:FilePath/Fasano%20-%20Zoosafari-%20Fasanolandia%2001.JPG",
   "unesco": false
  },
  {
   "id": "wd-Q133730590",
   "name": "Terrazzino del tempio",
   "lat": 40.7308,
   "lng": 13.964059,
   "country_code": "IT",
   "category": "monumento",
   "type": "atracción turística",
   "wikidata": "Q133730590",
   "image_url": "http://commons.wikimedia.org/wiki/Special:FilePath/Castello%20Aragonese%20102.jpg",
   "unesco": false
  },
  {
   "id": "wd-Q132202063",
   "name": "Our Lady of Lourdes shrine",
   "lat": 45.817252,
   "lng": 10.968926,
   "country_code": "IT",
   "category": "monumento",
   "type": "atracción turística",
   "wikidata": "Q132202063",
   "image_url": "http://commons.wikimedia.org/wiki/Special:FilePath/Cazzano%20-%20Capitello%20votivo.jpg",
   "unesco": false
  },
  {
   "id": "wd-Q107295083",
   "name": "big bench (Fossano)",
   "lat": 44.560134,
   "lng": 7.743521,
   "country_code": "IT",
   "category": "monumento",
   "type": "atracción turística",
   "wikidata": "Q107295083",
   "image_url": "http://commons.wikimedia.org/wiki/Special:FilePath/Big%20bench%20Fossano.jpg",
   "unesco": false
  },
  {
   "id": "wd-Q56112094",
   "name": "Miniere Turistiche del Lago di Como",
   "lat": 45.983962,
   "lng": 9.40552,
   "country_code": "IT",
   "category": "monumento",
   "type": "atracción turística",
   "wikidata": "Q56112094",
   "image_url": null,
   "unesco": false
  },
  {
   "id": "wd-Q108647000",
   "name": "Legoland Water Park",
   "lat": 45.455111,
   "lng": 10.711944,
   "country_code": "IT",
   "category": "monumento",
   "type": "atracción turística",
   "wikidata": "Q108647000",
   "image_url": "http://commons.wikimedia.org/wiki/Special:FilePath/Legoland%20Water%20Park%20Gardaland%20Entrance.jpg",
   "unesco": false
  },
  {
   "id": "wd-Q133827147",
   "name": "Sardegna in Miniatura",
   "lat": 39.702222,
   "lng": 8.979722,
   "country_code": "IT",
   "category": "monumento",
   "type": "atracción turística",
   "wikidata": "Q133827147",
   "image_url": "http://commons.wikimedia.org/wiki/Special:FilePath/Sardegna%20in%20Miniatura.jpg",
   "unesco": false
  },
  {
   "id": "wd-Q18763206",
   "name": "Oblivion: The Black Hole",
   "lat": 45.4582,
   "lng": 10.7111,
   "country_code": "IT",
   "category": "monumento",
   "type": "atracción turística",
   "wikidata": "Q18763206",
   "image_url": "http://commons.wikimedia.org/wiki/Special:FilePath/Oblivion1-Gardaland.jpg",
   "unesco": false
  },
  {
   "id": "wd-Q112730966",
   "name": "big bench (Chiusa di Pesio)",
   "lat": 44.313381,
   "lng": 7.674824,
   "country_code": "IT",
   "category": "monumento",
   "type": "atracción turística",
   "wikidata": "Q112730966",
   "image_url": "http://commons.wikimedia.org/wiki/Special:FilePath/Big%20bench%20Chiusa%20di%20Pesio%2C%20front%20view.jpg",
   "unesco": false
  },
  {
   "id": "wd-Q992894",
   "name": "Eurowheel",
   "lat": 44.339216,
   "lng": 12.262223,
   "country_code": "IT",
   "category": "monumento",
   "type": "atracción turística",
   "wikidata": "Q992894",
   "image_url": "http://commons.wikimedia.org/wiki/Special:FilePath/Eurowheel%20in%20Mirabilandia.jpg",
   "unesco": false
  },
  {
   "id": "wd-Q114683849",
   "name": "Alpyland",
   "lat": 45.884517,
   "lng": 8.453719,
   "country_code": "IT",
   "category": "monumento",
   "type": "atracción turística",
   "wikidata": "Q114683849",
   "image_url": "http://commons.wikimedia.org/wiki/Special:FilePath/ALPYLAND%20MOTTARONE%20-%20panoramio.jpg",
   "unesco": false
  },
  {
   "id": "wd-Q107424459",
   "name": "big bench (Camino)",
   "lat": 45.163531,
   "lng": 8.268608,
   "country_code": "IT",
   "category": "monumento",
   "type": "atracción turística",
   "wikidata": "Q107424459",
   "image_url": "http://commons.wikimedia.org/wiki/Special:FilePath/Panchina%20Gigante%20Rosa%20Monferrato.jpg",
   "unesco": false
  },
  {
   "id": "wd-Q97104478",
   "name": "piazzetta del Coppaio",
   "lat": 43.296961,
   "lng": 10.614585,
   "country_code": "IT",
   "category": "monumento",
   "type": "atracción turística",
   "wikidata": "Q97104478",
   "image_url": "http://commons.wikimedia.org/wiki/Special:FilePath/Casa%20Cancellieri%20e%20l%27ultimo%20sole%20sulla%20piazzetta%20del%20Coppaio.jpg",
   "unesco": false
  },
  {
   "id": "wd-Q111133749",
   "name": "big bench (Vignolo)",
   "lat": 44.36286,
   "lng": 7.46421,
   "country_code": "IT",
   "category": "monumento",
   "type": "atracción turística",
   "wikidata": "Q111133749",
   "image_url": "http://commons.wikimedia.org/wiki/Special:FilePath/Big%20bench%20Vignolo.jpg",
   "unesco": false
  },
  {
   "id": "wd-Q136196774",
   "name": "Ferris Wheels",
   "lat": 44.651023,
   "lng": 10.921596,
   "country_code": "IT",
   "category": "monumento",
   "type": "atracción turística",
   "wikidata": "Q136196774",
   "image_url": "http://commons.wikimedia.org/wiki/Special:FilePath/Ferris%20Wheels%20%28Modena%29%20in%202025.10.jpg",
   "unesco": false
  },
  {
   "id": "wd-Q87780199",
   "name": "Lodisplash",
   "lat": 45.280562,
   "lng": 9.474619,
   "country_code": "IT",
   "category": "monumento",
   "type": "atracción turística",
   "wikidata": "Q87780199",
   "image_url": null,
   "unesco": false
  },
  {
   "id": "wd-Q19278353",
   "name": "Divertical",
   "lat": 44.335056,
   "lng": 12.261694,
   "country_code": "IT",
   "category": "monumento",
   "type": "atracción turística",
   "wikidata": "Q19278353",
   "image_url": "http://commons.wikimedia.org/wiki/Special:FilePath/Divertical01.JPG",
   "unesco": false
  },
  {
   "id": "wd-Q84034783",
   "name": "Il Belvedere",
   "lat": 44.637565,
   "lng": 7.934733,
   "country_code": "IT",
   "category": "monumento",
   "type": "atracción turística",
   "wikidata": "Q84034783",
   "image_url": null,
   "unesco": false
  },
  {
   "id": "wd-Q56219480",
   "name": "Belvedere",
   "lat": 42.750902,
   "lng": 13.958949,
   "country_code": "IT",
   "category": "monumento",
   "type": "atracción turística",
   "wikidata": "Q56219480",
   "image_url": "http://commons.wikimedia.org/wiki/Special:FilePath/Giulianova%20-%20Belvedere%2001.jpg",
   "unesco": true
  },
  {
   "id": "wd-Q934416",
   "name": "iglesia de Santa Maria dei Miracoli (Roma)",
   "lat": 41.90982,
   "lng": 12.47645,
   "country_code": "IT",
   "category": "monumento",
   "type": "atracción turística",
   "wikidata": "Q934416",
   "image_url": "http://commons.wikimedia.org/wiki/Special:FilePath/Santa%20Maria%20dei%20Miracoli%20in%20Rome%20%283%29.jpg",
   "unesco": true
  },
  {
   "id": "wd-Q16527947",
   "name": "Aquapark di Zambrone",
   "lat": 38.7108,
   "lng": 15.9711,
   "country_code": "IT",
   "category": "monumento",
   "type": "atracción turística",
   "wikidata": "Q16527947",
   "image_url": "http://commons.wikimedia.org/wiki/Special:FilePath/Panoramica%20AQUAPARK%20di%20Zambrone.JPG",
   "unesco": false
  },
  {
   "id": "wd-Q2941087",
   "name": "Casino Mediceo di San Marco",
   "lat": 43.779108,
   "lng": 11.258658,
   "country_code": "IT",
   "category": "monumento",
   "type": "atracción turística",
   "wikidata": "Q2941087",
   "image_url": "http://commons.wikimedia.org/wiki/Special:FilePath/Casino%20mediceo%20di%20san%20marco%2011.JPG",
   "unesco": false
  },
  {
   "id": "wd-Q3895621",
   "name": "Parco minerario di Floristella-Grottacalda",
   "lat": 37.384727,
   "lng": 14.374572,
   "country_code": "IT",
   "category": "monumento",
   "type": "atracción turística",
   "wikidata": "Q3895621",
   "image_url": "http://commons.wikimedia.org/wiki/Special:FilePath/Pozzo%20nuovo%2001.jpg",
   "unesco": true
  },
  {
   "id": "wd-Q111628738",
   "name": "big bench (Verrua Savoia)",
   "lat": 45.14409,
   "lng": 8.086674,
   "country_code": "IT",
   "category": "monumento",
   "type": "atracción turística",
   "wikidata": "Q111628738",
   "image_url": "http://commons.wikimedia.org/wiki/Special:FilePath/Panchina%20Gigante%20Verrua%20Savoia.jpg",
   "unesco": false
  },
  {
   "id": "wd-Q112731031",
   "name": "big bench (Pianfei)",
   "lat": 44.354693,
   "lng": 7.7133,
   "country_code": "IT",
   "category": "monumento",
   "type": "atracción turística",
   "wikidata": "Q112731031",
   "image_url": "http://commons.wikimedia.org/wiki/Special:FilePath/Big%20bench%20Pianfei%20front%20view%2002.jpg",
   "unesco": false
  },
  {
   "id": "wd-Q112482",
   "name": "Torre Cívica de Pavía",
   "lat": 45.184957,
   "lng": 9.152989,
   "country_code": "IT",
   "category": "monumento",
   "type": "atracción turística",
   "wikidata": "Q112482",
   "image_url": "http://commons.wikimedia.org/wiki/Special:FilePath/Resti%20torre%20civica%203.JPG",
   "unesco": true
  },
  {
   "id": "wd-Q113562068",
   "name": "big bench (Robilante)",
   "lat": 44.275172,
   "lng": 7.495164,
   "country_code": "IT",
   "category": "monumento",
   "type": "atracción turística",
   "wikidata": "Q113562068",
   "image_url": "http://commons.wikimedia.org/wiki/Special:FilePath/Big%20bench%2C%20Robilante.jpg",
   "unesco": false
  },
  {
   "id": "wd-Q112121832",
   "name": "big bench (Moiola)",
   "lat": 44.3171,
   "lng": 7.3807,
   "country_code": "IT",
   "category": "monumento",
   "type": "atracción turística",
   "wikidata": "Q112121832",
   "image_url": "http://commons.wikimedia.org/wiki/Special:FilePath/Big%20bench%20Moiola%2002.jpg",
   "unesco": false
  },
  {
   "id": "wd-Q113952308",
   "name": "big bench (Bellano)",
   "lat": 46.047598,
   "lng": 9.348335,
   "country_code": "IT",
   "category": "monumento",
   "type": "atracción turística",
   "wikidata": "Q113952308",
   "image_url": "http://commons.wikimedia.org/wiki/Special:FilePath/Panchina%20gigante%20di%20Bellano%2003.jpg",
   "unesco": false
  },
  {
   "id": "wd-Q113562085",
   "name": "big bench (Limone Piemonte)",
   "lat": 44.223764,
   "lng": 7.569897,
   "country_code": "IT",
   "category": "monumento",
   "type": "atracción turística",
   "wikidata": "Q113562085",
   "image_url": "http://commons.wikimedia.org/wiki/Special:FilePath/Big%20bench%2C%20Limone%20Piemonte%2002.jpg",
   "unesco": false
  },
  {
   "id": "wd-Q3628229",
   "name": "Atlantica Water Park",
   "lat": 44.210088,
   "lng": 12.388898,
   "country_code": "IT",
   "category": "monumento",
   "type": "atracción turística",
   "wikidata": "Q3628229",
   "image_url": null,
   "unesco": false
  },
  {
   "id": "wd-Q133277893",
   "name": "grotta della Madonnina",
   "lat": 46.409413,
   "lng": 11.144047,
   "country_code": "IT",
   "category": "monumento",
   "type": "atracción turística",
   "wikidata": "Q133277893",
   "image_url": null,
   "unesco": false
  },
  {
   "id": "wd-Q66486107",
   "name": "Ruota panoramica di Catanzaro",
   "lat": 38.827707,
   "lng": 16.630022,
   "country_code": "IT",
   "category": "monumento",
   "type": "atracción turística",
   "wikidata": "Q66486107",
   "image_url": "http://commons.wikimedia.org/wiki/Special:FilePath/Ruota%20panoramica%20di%20Catanzaro%2018.jpg",
   "unesco": false
  },
  {
   "id": "wd-Q56112080",
   "name": "Miniere dei Piani Resinelli",
   "lat": 45.900185,
   "lng": 9.391763,
   "country_code": "IT",
   "category": "monumento",
   "type": "atracción turística",
   "wikidata": "Q56112080",
   "image_url": "http://commons.wikimedia.org/wiki/Special:FilePath/Museo%20miniere%20Gorno%20-%20esterno%20miniera.jpg",
   "unesco": false
  },
  {
   "id": "wd-Q3315857",
   "name": "Miragica",
   "lat": 41.213013,
   "lng": 16.551697,
   "country_code": "IT",
   "category": "monumento",
   "type": "atracción turística",
   "wikidata": "Q3315857",
   "image_url": "http://commons.wikimedia.org/wiki/Special:FilePath/Senzafiato.jpg",
   "unesco": false
  },
  {
   "id": "wd-Q65087554",
   "name": "Desmo Race",
   "lat": 44.3389,
   "lng": 12.2636,
   "country_code": "IT",
   "category": "monumento",
   "type": "atracción turística",
   "wikidata": "Q65087554",
   "image_url": null,
   "unesco": false
  },
  {
   "id": "wd-Q124080206",
   "name": "Lourdes cave in the Pieve di Chiampo",
   "lat": 45.537892,
   "lng": 11.286424,
   "country_code": "IT",
   "category": "monumento",
   "type": "atracción turística",
   "wikidata": "Q124080206",
   "image_url": null,
   "unesco": false
  },
  {
   "id": "wd-Q3882438",
   "name": "Ondaland",
   "lat": 45.4793,
   "lng": 8.42551,
   "country_code": "IT",
   "category": "monumento",
   "type": "atracción turística",
   "wikidata": "Q3882438",
   "image_url": "http://commons.wikimedia.org/wiki/Special:FilePath/Ondaland%20dall%27alto%20alta%20definizione.jpg",
   "unesco": false
  },
  {
   "id": "wd-Q111038006",
   "name": "big bench (Centro Valle Intelvi)",
   "lat": 45.945833,
   "lng": 9.063544,
   "country_code": "IT",
   "category": "monumento",
   "type": "atracción turística",
   "wikidata": "Q111038006",
   "image_url": "http://commons.wikimedia.org/wiki/Special:FilePath/Panchina%20Gigante%20Centro%20Valle%20Intelvi.jpg",
   "unesco": false
  },
  {
   "id": "wd-Q495217",
   "name": "Sacro Convento de San Francisco",
   "lat": 43.074722,
   "lng": 12.605556,
   "country_code": "IT",
   "category": "monumento",
   "type": "atracción turística",
   "wikidata": "Q495217",
   "image_url": "http://commons.wikimedia.org/wiki/Special:FilePath/Sacro%20Convento%20%28Assisi%29%20-%20Remote%20view.jpg",
   "unesco": false
  },
  {
   "id": "wd-Q111609701",
   "name": "big bench (Vignale Monferrato)",
   "lat": 45.018974,
   "lng": 8.360702,
   "country_code": "IT",
   "category": "monumento",
   "type": "atracción turística",
   "wikidata": "Q111609701",
   "image_url": "http://commons.wikimedia.org/wiki/Special:FilePath/Panchina%20Gigante%20Vignale%20Monferrato.jpg",
   "unesco": false
  },
  {
   "id": "wd-Q771128",
   "name": "Katun",
   "lat": 44.339339,
   "lng": 12.266208,
   "country_code": "IT",
   "category": "monumento",
   "type": "atracción turística",
   "wikidata": "Q771128",
   "image_url": "http://commons.wikimedia.org/wiki/Special:FilePath/Katun%20Loop.jpg",
   "unesco": false
  },
  {
   "id": "wd-Q111609721",
   "name": "big bench (Camagna Monferrato)",
   "lat": 45.027098,
   "lng": 8.434352,
   "country_code": "IT",
   "category": "monumento",
   "type": "atracción turística",
   "wikidata": "Q111609721",
   "image_url": "http://commons.wikimedia.org/wiki/Special:FilePath/Panchina%20Gigante%20Camagna%20Monferrato.jpg",
   "unesco": false
  },
  {
   "id": "wd-Q15732841",
   "name": "Fuga da Atlantide",
   "lat": 45.4571,
   "lng": 10.7152,
   "country_code": "IT",
   "category": "monumento",
   "type": "atracción turística",
   "wikidata": "Q15732841",
   "image_url": "http://commons.wikimedia.org/wiki/Special:FilePath/Fuga%20da%20Atlantide%20160919.jpg",
   "unesco": false
  },
  {
   "id": "wd-Q111609381",
   "name": "big bench (Sala Monferrato)",
   "lat": 45.070273,
   "lng": 8.352757,
   "country_code": "IT",
   "category": "monumento",
   "type": "atracción turística",
   "wikidata": "Q111609381",
   "image_url": "http://commons.wikimedia.org/wiki/Special:FilePath/Panchina%20Gigante%20Sala%20Monferrato.jpg",
   "unesco": false
  },
  {
   "id": "wd-Q70344557",
   "name": "Miniera Di Bochey",
   "lat": 45.718572,
   "lng": 7.726665,
   "country_code": "IT",
   "category": "monumento",
   "type": "atracción turística",
   "wikidata": "Q70344557",
   "image_url": null,
   "unesco": false
  },
  {
   "id": "wd-Q689084",
   "name": "Shaman",
   "lat": 45.456667,
   "lng": 10.707222,
   "country_code": "IT",
   "category": "monumento",
   "type": "atracción turística",
   "wikidata": "Q689084",
   "image_url": "http://commons.wikimedia.org/wiki/Special:FilePath/Magic%20Mountain%20Gardaland.JPG",
   "unesco": false
  },
  {
   "id": "wd-Q3604695",
   "name": "Acquaworld",
   "lat": 45.5834,
   "lng": 9.32884,
   "country_code": "IT",
   "category": "monumento",
   "type": "atracción turística",
   "wikidata": "Q3604695",
   "image_url": null,
   "unesco": false
  },
  {
   "id": "wd-Q66321931",
   "name": "Belvedere con scalinata",
   "lat": 41.54953,
   "lng": 12.98387,
   "country_code": "IT",
   "category": "monumento",
   "type": "atracción turística",
   "wikidata": "Q66321931",
   "image_url": "http://commons.wikimedia.org/wiki/Special:FilePath/Sermoneta%20-%20Scalinata%20del%20belvedere%20con%20fantasma.jpg",
   "unesco": true
  },
  {
   "id": "wd-Q133730359",
   "name": "Terrace of the Immaculate Conception",
   "lat": 40.731465,
   "lng": 13.964163,
   "country_code": "IT",
   "category": "monumento",
   "type": "atracción turística",
   "wikidata": "Q133730359",
   "image_url": null,
   "unesco": false
  },
  {
   "id": "wd-Q115911157",
   "name": "La Losa",
   "lat": 45.574873,
   "lng": 10.707294,
   "country_code": "IT",
   "category": "monumento",
   "type": "atracción turística",
   "wikidata": "Q115911157",
   "image_url": "http://commons.wikimedia.org/wiki/Special:FilePath/Belvedere%20Garda.jpg",
   "unesco": false
  },
  {
   "id": "wd-Q133729947",
   "name": "Panoramic loggia",
   "lat": 40.730875,
   "lng": 13.963972,
   "country_code": "IT",
   "category": "monumento",
   "type": "atracción turística",
   "wikidata": "Q133729947",
   "image_url": "http://commons.wikimedia.org/wiki/Special:FilePath/Castello%20Aragonese%20101.jpg",
   "unesco": false
  },
  {
   "id": "wd-Q110971361",
   "name": "big bench (Rosignano Monferrato)",
   "lat": 45.083858,
   "lng": 8.389664,
   "country_code": "IT",
   "category": "monumento",
   "type": "atracción turística",
   "wikidata": "Q110971361",
   "image_url": "http://commons.wikimedia.org/wiki/Special:FilePath/Panchina%20Gigante%20Rosignano.jpg",
   "unesco": false
  },
  {
   "id": "wd-Q623008",
   "name": "Aquafan",
   "lat": 43.986944,
   "lng": 12.644722,
   "country_code": "IT",
   "category": "monumento",
   "type": "atracción turística",
   "wikidata": "Q623008",
   "image_url": "http://commons.wikimedia.org/wiki/Special:FilePath/Dolphinarium%20at%20Oltremare%20-%20Riccione%20%28Naturalistic-technological%20theme%20park%29.jpg",
   "unesco": false
  },
  {
   "id": "wd-Q68120014",
   "name": "Belvedere Florence Nightingale",
   "lat": 44.017649,
   "lng": 8.188399,
   "country_code": "IT",
   "category": "monumento",
   "type": "atracción turística",
   "wikidata": "Q68120014",
   "image_url": "http://commons.wikimedia.org/wiki/Special:FilePath/Ami%C3%A2d%C3%B4%20Florence%20Nightingale%20%28Ar%C3%A0sce%29%20-%20v%C3%ACsta%20%281%29.jpg",
   "unesco": true
  },
  {
   "id": "wd-Q111021917",
   "name": "big bench (Olivola)",
   "lat": 45.033964,
   "lng": 8.376862,
   "country_code": "IT",
   "category": "monumento",
   "type": "atracción turística",
   "wikidata": "Q111021917",
   "image_url": "http://commons.wikimedia.org/wiki/Special:FilePath/Panchina%20Gigante%20Olivola.jpg",
   "unesco": false
  },
  {
   "id": "wd-Q2279695",
   "name": "Shock",
   "lat": 41.764741,
   "lng": 12.958695,
   "country_code": "IT",
   "category": "monumento",
   "type": "atracción turística",
   "wikidata": "Q2279695",
   "image_url": "http://commons.wikimedia.org/wiki/Special:FilePath/2011Shock%20%28Rainbow%20MagicLand%29.JPG",
   "unesco": false
  },
  {
   "id": "wd-Q112001806",
   "name": "big bench (Alfiano Natta)",
   "lat": 45.042215,
   "lng": 8.199155,
   "country_code": "IT",
   "category": "monumento",
   "type": "atracción turística",
   "wikidata": "Q112001806",
   "image_url": "http://commons.wikimedia.org/wiki/Special:FilePath/Panchina%20Gigante%20Alfiano%20Natta.jpg",
   "unesco": false
  },
  {
   "id": "wd-Q3621089",
   "name": "Caribe Bay",
   "lat": 45.494056,
   "lng": 12.601097,
   "country_code": "IT",
   "category": "monumento",
   "type": "atracción turística",
   "wikidata": "Q3621089",
   "image_url": "http://commons.wikimedia.org/wiki/Special:FilePath/Lido%20de%20Jesolo%2C%20Aqualandia%2C%20panorama%20-%20panoramio.jpg",
   "unesco": false
  },
  {
   "id": "wd-Q18354212",
   "name": "Eurofighter",
   "lat": 40.8303,
   "lng": 17.3398,
   "country_code": "IT",
   "category": "monumento",
   "type": "atracción turística",
   "wikidata": "Q18354212",
   "image_url": "http://commons.wikimedia.org/wiki/Special:FilePath/Eurofighter%20at%20Zoosafari%20Fasanolandia%20loop.jpg",
   "unesco": false
  },
  {
   "id": "wd-Q65121359",
   "name": "Balcone dello Jonio viepoint",
   "lat": 40.17274,
   "lng": 16.525048,
   "country_code": "IT",
   "category": "monumento",
   "type": "atracción turística",
   "wikidata": "Q65121359",
   "image_url": "http://commons.wikimedia.org/wiki/Special:FilePath/Il%20BELVEDERE.jpg",
   "unesco": true
  },
  {
   "id": "wd-Q338421",
   "name": "Raptor",
   "lat": 45.457056,
   "lng": 10.711949,
   "country_code": "IT",
   "category": "monumento",
   "type": "atracción turística",
   "wikidata": "Q338421",
   "image_url": "http://commons.wikimedia.org/wiki/Special:FilePath/Raptor%20Gardaland%202011.jpg",
   "unesco": false
  },
  {
   "id": "wd-Q3074619",
   "name": "Flying Island",
   "lat": 45.4583,
   "lng": 10.7119,
   "country_code": "IT",
   "category": "monumento",
   "type": "atracción turística",
   "wikidata": "Q3074619",
   "image_url": "http://commons.wikimedia.org/wiki/Special:FilePath/Flying%20Island.jpg",
   "unesco": false
  },
  {
   "id": "wd-Q107299763",
   "name": "big bench (Neive)",
   "lat": 44.725865,
   "lng": 8.111787,
   "country_code": "IT",
   "category": "monumento",
   "type": "atracción turística",
   "wikidata": "Q107299763",
   "image_url": "http://commons.wikimedia.org/wiki/Special:FilePath/Panchina%20gigante%20Neive.jpg",
   "unesco": false
  },
  {
   "id": "wd-Q1137863",
   "name": "Blue Tornado",
   "lat": 45.456601,
   "lng": 10.71366,
   "country_code": "IT",
   "category": "monumento",
   "type": "atracción turística",
   "wikidata": "Q1137863",
   "image_url": "http://commons.wikimedia.org/wiki/Special:FilePath/BlueTornado.jpg",
   "unesco": false
  },
  {
   "id": "wd-Q108128332",
   "name": "Belvedere di Ferrazzano",
   "lat": 41.53096,
   "lng": 14.670766,
   "country_code": "IT",
   "category": "monumento",
   "type": "atracción turística",
   "wikidata": "Q108128332",
   "image_url": "http://commons.wikimedia.org/wiki/Special:FilePath/Belvedere%20di%20Ferrazzano%20%281%29.jpg",
   "unesco": false
  },
  {
   "id": "wd-Q66314347",
   "name": "Grotta Palazzese",
   "lat": 40.995961,
   "lng": 17.221227,
   "country_code": "IT",
   "category": "monumento",
   "type": "atracción turística",
   "wikidata": "Q66314347",
   "image_url": "http://commons.wikimedia.org/wiki/Special:FilePath/Polignano%20a%20Mare%20-%20Grotta%20Palazzese%20dal%20mare.jpg",
   "unesco": true
  },
  {
   "id": "wd-Q3777070",
   "name": "Lourdes grotto",
   "lat": 46.219811,
   "lng": 11.12462,
   "country_code": "IT",
   "category": "monumento",
   "type": "atracción turística",
   "wikidata": "Q3777070",
   "image_url": "http://commons.wikimedia.org/wiki/Special:FilePath/Grotta%20di%20Lourdes%20a%20Mezzocorona%2001.JPG",
   "unesco": false
  },
  {
   "id": "wd-Q56258184",
   "name": "Belvedere con vista sulla Baia delle Sirene",
   "lat": 45.576248,
   "lng": 10.677059,
   "country_code": "IT",
   "category": "monumento",
   "type": "atracción turística",
   "wikidata": "Q56258184",
   "image_url": "http://commons.wikimedia.org/wiki/Special:FilePath/Garda%2C%20tramonto%20sulla%20baia%20delle%20sirene.jpg",
   "unesco": true
  },
  {
   "id": "wd-Q111430297",
   "name": "Panoramica Limiti",
   "lat": 41.01319,
   "lng": 15.09817,
   "country_code": "IT",
   "category": "monumento",
   "type": "atracción turística",
   "wikidata": "Q111430297",
   "image_url": "http://commons.wikimedia.org/wiki/Special:FilePath/Frigento%20-%20Panoramica%20Limiti%20-%20202209202144.jpeg",
   "unesco": true
  },
  {
   "id": "wd-Q118745063",
   "name": "church of Beata Vergine di Lourdes",
   "lat": 45.794831,
   "lng": 9.447184,
   "country_code": "IT",
   "category": "monumento",
   "type": "atracción turística",
   "wikidata": "Q118745063",
   "image_url": null,
   "unesco": false
  },
  {
   "id": "wd-Q112633149",
   "name": "big bench (Grone)",
   "lat": 45.743479,
   "lng": 9.937917,
   "country_code": "IT",
   "category": "monumento",
   "type": "atracción turística",
   "wikidata": "Q112633149",
   "image_url": "http://commons.wikimedia.org/wiki/Special:FilePath/20220528-sfermo%20torrezzo-074.jpg",
   "unesco": false
  },
  {
   "id": "wd-Q77436014",
   "name": "Rocche dei Perticali - i Calanchi",
   "lat": 44.483601,
   "lng": 7.921544,
   "country_code": "IT",
   "category": "monumento",
   "type": "atracción turística",
   "wikidata": "Q77436014",
   "image_url": null,
   "unesco": false
  },
  {
   "id": "wd-Q2052048",
   "name": "Mineral park of Gavorrano",
   "lat": 42.9211,
   "lng": 10.9072,
   "country_code": "IT",
   "category": "monumento",
   "type": "atracción turística",
   "wikidata": "Q2052048",
   "image_url": null,
   "unesco": false
  },
  {
   "id": "wd-Q112225401",
   "name": "big bench (Rore)",
   "lat": 44.578425,
   "lng": 7.224914,
   "country_code": "IT",
   "category": "monumento",
   "type": "atracción turística",
   "wikidata": "Q112225401",
   "image_url": "http://commons.wikimedia.org/wiki/Special:FilePath/Big%20Bench%2C%20Rore%20di%20Sampeyre%2002.jpg",
   "unesco": false
  },
  {
   "id": "wd-Q962319",
   "name": "Sequoia Magic Loop",
   "lat": 45.457,
   "lng": 10.7076,
   "country_code": "IT",
   "category": "monumento",
   "type": "atracción turística",
   "wikidata": "Q962319",
   "image_url": "http://commons.wikimedia.org/wiki/Special:FilePath/SequoiaAdventure.jpg",
   "unesco": false
  },
  {
   "id": "wd-Q3861962",
   "name": "Monte San Martino",
   "lat": 45.874564,
   "lng": 9.387298,
   "country_code": "IT",
   "category": "monumento",
   "type": "atracción turística",
   "wikidata": "Q3861962",
   "image_url": "http://commons.wikimedia.org/wiki/Special:FilePath/Lecco%20e%20il%20Monte%20San%20Martino.JPG",
   "unesco": false
  },
  {
   "id": "wd-Q931172",
   "name": "Vulci",
   "lat": 42.418889,
   "lng": 11.631667,
   "country_code": "IT",
   "category": "monumento",
   "type": "atracción turística",
   "wikidata": "Q931172",
   "image_url": "http://commons.wikimedia.org/wiki/Special:FilePath/Vulci%20site.jpg",
   "unesco": false
  },
  {
   "id": "wd-Q3059351",
   "name": "Etnaland",
   "lat": 37.535764,
   "lng": 14.932158,
   "country_code": "IT",
   "category": "monumento",
   "type": "atracción turística",
   "wikidata": "Q3059351",
   "image_url": "http://commons.wikimedia.org/wiki/Special:FilePath/Jungle-Splash.png",
   "unesco": false
  },
  {
   "id": "wd-Q506234",
   "name": "Monumento a Víctor Manuel II",
   "lat": 41.894722,
   "lng": 12.483056,
   "country_code": "IT",
   "category": "monumento",
   "type": "atracción turística",
   "wikidata": "Q506234",
   "image_url": "http://commons.wikimedia.org/wiki/Special:FilePath/Altare%20della%20Patria%20%28Roma%29.jpg",
   "unesco": true
  },
  {
   "id": "wd-Q3641485",
   "name": "Boccadasse",
   "lat": 44.38972,
   "lng": 8.97453,
   "country_code": "IT",
   "category": "monumento",
   "type": "atracción turística",
   "wikidata": "Q3641485",
   "image_url": "http://commons.wikimedia.org/wiki/Special:FilePath/Boccadasse.jpg",
   "unesco": false
  },
  {
   "id": "wd-Q1238871",
   "name": "Fuerte de Fuentes",
   "lat": 46.14798,
   "lng": 9.403899,
   "country_code": "IT",
   "category": "monumento",
   "type": "atracción turística",
   "wikidata": "Q1238871",
   "image_url": "http://commons.wikimedia.org/wiki/Special:FilePath/Forte%20Fuentes%2008-2008%20-%20panoramio%20-%20adirricor.jpg",
   "unesco": true
  },
  {
   "id": "wd-Q3315507",
   "name": "Leolandia",
   "lat": 45.60574,
   "lng": 9.53864,
   "country_code": "IT",
   "category": "monumento",
   "type": "atracción turística",
   "wikidata": "Q3315507",
   "image_url": null,
   "unesco": false
  },
  {
   "id": "wd-Q10924",
   "name": "Catedral de Orvieto",
   "lat": 42.717011,
   "lng": 12.113272,
   "country_code": "IT",
   "category": "monumento",
   "type": "atracción turística",
   "wikidata": "Q10924",
   "image_url": "http://commons.wikimedia.org/wiki/Special:FilePath/Duomo%20di%20Orvieto%202014.JPG",
   "unesco": true
  },
  {
   "id": "wd-Q1049016",
   "name": "Castelvecchio",
   "lat": 45.439568,
   "lng": 10.988099,
   "country_code": "IT",
   "category": "monumento",
   "type": "atracción turística",
   "wikidata": "Q1049016",
   "image_url": "http://commons.wikimedia.org/wiki/Special:FilePath/Castelvecchio%20Verona-01.JPG",
   "unesco": true
  },
  {
   "id": "wd-Q208633",
   "name": "Ponte Vecchio",
   "lat": 43.767989,
   "lng": 11.253192,
   "country_code": "IT",
   "category": "monumento",
   "type": "atracción turística",
   "wikidata": "Q208633",
   "image_url": "http://commons.wikimedia.org/wiki/Special:FilePath/Ponte%20Vecchio%20sobre%20el%20r%C3%ADo%20Arno%2C%20Florencia%2C%20Italia%2C%202022-09-19%2C%20DD%2002.jpg",
   "unesco": true
  },
  {
   "id": "wd-Q55375982",
   "name": "Museo Etnografico e Naturalistico Val Sanagra",
   "lat": 46.03089,
   "lng": 9.2079,
   "country_code": "IT",
   "category": "monumento",
   "type": "atracción turística",
   "wikidata": "Q55375982",
   "image_url": "http://commons.wikimedia.org/wiki/Special:FilePath/Grandola%20ed%20Uniti%20-%20Museo%20etnografico%20e%20naturalistico%20Val%20Sanagra%20-%202025-09-29%2021-06-15%20001.jpg",
   "unesco": true
  },
  {
   "id": "wd-Q1065214",
   "name": "Cuadrilátero de la moda",
   "lat": 45.469898,
   "lng": 9.195342,
   "country_code": "IT",
   "category": "monumento",
   "type": "atracción turística",
   "wikidata": "Q1065214",
   "image_url": "http://commons.wikimedia.org/wiki/Special:FilePath/Milano%2C%20via%20Monte%20Napoleone%20%2830823064395%29.jpg",
   "unesco": false
  },
  {
   "id": "wd-Q56112093",
   "name": "Parco Valentino",
   "lat": 45.903553,
   "lng": 9.392006,
   "country_code": "IT",
   "category": "monumento",
   "type": "atracción turística",
   "wikidata": "Q56112093",
   "image_url": "http://commons.wikimedia.org/wiki/Special:FilePath/Observation%20deck%20of%20Belvedere%20parco%20del%20Valentino%2002.jpg",
   "unesco": false
  },
  {
   "id": "wd-Q99309",
   "name": "Panteón de Agripa",
   "lat": 41.898611,
   "lng": 12.476944,
   "country_code": "IT",
   "category": "monumento",
   "type": "atracción turística",
   "wikidata": "Q99309",
   "image_url": "http://commons.wikimedia.org/wiki/Special:FilePath/Rome%20Pantheon%20front.jpg",
   "unesco": true
  },
  {
   "id": "wd-Q3746246",
   "name": "Fiumelatte",
   "lat": 46.0012,
   "lng": 9.29167,
   "country_code": "IT",
   "category": "monumento",
   "type": "atracción turística",
   "wikidata": "Q3746246",
   "image_url": "http://commons.wikimedia.org/wiki/Special:FilePath/Fiumelatte%20torrente.jpg",
   "unesco": false
  },
  {
   "id": "wd-Q568194",
   "name": "Obelisco Flaminio",
   "lat": 41.9107,
   "lng": 12.47635,
   "country_code": "IT",
   "category": "monumento",
   "type": "atracción turística",
   "wikidata": "Q568194",
   "image_url": "http://commons.wikimedia.org/wiki/Special:FilePath/0%20Obelisco%20Flaminio%20-%20Rome%20%282%29.JPG",
   "unesco": false
  },
  {
   "id": "wd-Q1235318",
   "name": "Piazza Bellini",
   "lat": 40.84958,
   "lng": 14.252121,
   "country_code": "IT",
   "category": "monumento",
   "type": "atracción turística",
   "wikidata": "Q1235318",
   "image_url": "http://commons.wikimedia.org/wiki/Special:FilePath/NapoliPiazzaBellini.jpg",
   "unesco": false
  },
  {
   "id": "wd-Q3361846",
   "name": "Pan de Azúcar (Cerdeña)",
   "lat": 39.333833,
   "lng": 8.39982,
   "country_code": "IT",
   "category": "monumento",
   "type": "atracción turística",
   "wikidata": "Q3361846",
   "image_url": "http://commons.wikimedia.org/wiki/Special:FilePath/Concali%20su%20Terr%C3%A0inu%2C%20Pan%20di%20Zucchero.JPG",
   "unesco": false
  },
  {
   "id": "wd-Q3900689",
   "name": "Pescarenico",
   "lat": 45.8453,
   "lng": 9.39972,
   "country_code": "IT",
   "category": "monumento",
   "type": "atracción turística",
   "wikidata": "Q3900689",
   "image_url": "http://commons.wikimedia.org/wiki/Special:FilePath/Lecco%2C%20Pescarenico.jpg",
   "unesco": false
  },
  {
   "id": "wd-Q3886164",
   "name": "Orrido di Bellano",
   "lat": 46.04249,
   "lng": 9.30508,
   "country_code": "IT",
   "category": "monumento",
   "type": "atracción turística",
   "wikidata": "Q3886164",
   "image_url": "http://commons.wikimedia.org/wiki/Special:FilePath/Orrido%20di%20Bellano3.jpg",
   "unesco": false
  },
  {
   "id": "wd-Q52505",
   "name": "puente de Rialto",
   "lat": 45.438008,
   "lng": 12.335639,
   "country_code": "IT",
   "category": "monumento",
   "type": "atracción turística",
   "wikidata": "Q52505",
   "image_url": "http://commons.wikimedia.org/wiki/Special:FilePath/Rialto%20Bridge%20at%20night1.jpg",
   "unesco": false
  },
  {
   "id": "wd-Q4011798",
   "name": "Villa Belgiojoso",
   "lat": 45.859403,
   "lng": 9.397554,
   "country_code": "IT",
   "category": "monumento",
   "type": "atracción turística",
   "wikidata": "Q4011798",
   "image_url": "http://commons.wikimedia.org/wiki/Special:FilePath/Palazzo%20Belgiojoso%2C%20Polo%20Museale%2C%20Lecco%20interior.jpg",
   "unesco": true
  },
  {
   "id": "wd-Q217527",
   "name": "Plaza de San Marcos",
   "lat": 45.434,
   "lng": 12.338,
   "country_code": "IT",
   "category": "monumento",
   "type": "atracción turística",
   "wikidata": "Q217527",
   "image_url": "http://commons.wikimedia.org/wiki/Special:FilePath/Piazza%20San%20Marco%20%28Venice%29%20at%20night-msu-2021-6449-.jpg",
   "unesco": false
  },
  {
   "id": "wd-Q55376077",
   "name": "Museo parrocchiale di Rossino",
   "lat": 45.806023,
   "lng": 9.438326,
   "country_code": "IT",
   "category": "monumento",
   "type": "atracción turística",
   "wikidata": "Q55376077",
   "image_url": null,
   "unesco": true
  },
  {
   "id": "wd-Q3734809",
   "name": "Europark Idroscalo Milano",
   "lat": 45.474806,
   "lng": 9.285106,
   "country_code": "IT",
   "category": "monumento",
   "type": "atracción turística",
   "wikidata": "Q3734809",
   "image_url": "http://commons.wikimedia.org/wiki/Special:FilePath/Paolo%20Monti%20-%20Serie%20fotografica%20%28Milano%2C%201963%29%20-%20BEIC%206328651.jpg",
   "unesco": false
  },
  {
   "id": "wd-Q463400",
   "name": "Plaza Navona",
   "lat": 41.898982,
   "lng": 12.473144,
   "country_code": "IT",
   "category": "monumento",
   "type": "atracción turística",
   "wikidata": "Q463400",
   "image_url": "http://commons.wikimedia.org/wiki/Special:FilePath/Paolo%20Monti%20-%20Servizio%20fotografico%20%28Roma%2C%201966%29%20-%20BEIC%206329173.jpg",
   "unesco": false
  },
  {
   "id": "wd-Q40660",
   "name": "Dubino",
   "lat": 46.15,
   "lng": 9.45,
   "country_code": "IT",
   "category": "monumento",
   "type": "atracción turística",
   "wikidata": "Q40660",
   "image_url": "http://commons.wikimedia.org/wiki/Special:FilePath/Stazione%20di%20Dubino%20%28SO%29.jpg",
   "unesco": false
  },
  {
   "id": "wd-Q40183",
   "name": "Novate Mezzola",
   "lat": 46.216667,
   "lng": 9.45,
   "country_code": "IT",
   "category": "monumento",
   "type": "atracción turística",
   "wikidata": "Q40183",
   "image_url": "http://commons.wikimedia.org/wiki/Special:FilePath/Novate%20Mezzola%20-%20chiesa%20della%20Santissima%20Trinit%C3%A0.jpg",
   "unesco": false
  },
  {
   "id": "wd-Q1677980",
   "name": "basílica de San Francisco",
   "lat": 43.46454,
   "lng": 11.88086,
   "country_code": "IT",
   "category": "monumento",
   "type": "atracción turística",
   "wikidata": "Q1677980",
   "image_url": "http://commons.wikimedia.org/wiki/Special:FilePath/Bas%C3%ADlica%20de%20San%20Francesco%2C%20Arezzo%2C%20Italia%2C%202022-09-17%2C%20DD%2030.jpg",
   "unesco": true
  },
  {
   "id": "wd-Q4012306",
   "name": "Villa Menafoglio Litta Panza",
   "lat": 45.824858,
   "lng": 8.828886,
   "country_code": "IT",
   "category": "monumento",
   "type": "atracción turística",
   "wikidata": "Q4012306",
   "image_url": "http://commons.wikimedia.org/wiki/Special:FilePath/Varese%20-%20Villa%20Panza%200294.jpg",
   "unesco": true
  },
  {
   "id": "wd-Q39092",
   "name": "Piantedo",
   "lat": 46.133333,
   "lng": 9.416667,
   "country_code": "IT",
   "category": "monumento",
   "type": "atracción turística",
   "wikidata": "Q39092",
   "image_url": "http://commons.wikimedia.org/wiki/Special:FilePath/Madonna%20di%20Valpozzo.jpg",
   "unesco": false
  },
  {
   "id": "wd-Q6313833",
   "name": "Laorca",
   "lat": 45.879722,
   "lng": 9.406389,
   "country_code": "IT",
   "category": "monumento",
   "type": "atracción turística",
   "wikidata": "Q6313833",
   "image_url": "http://commons.wikimedia.org/wiki/Special:FilePath/Laorca%20seen%20from%20Grotta%20della%20Madonna%20%28Laorca%2C%20Lecco%29%2010.jpg",
   "unesco": false
  },
  {
   "id": "wd-Q43032",
   "name": "Bellano",
   "lat": 46.0432,
   "lng": 9.3061,
   "country_code": "IT",
   "category": "monumento",
   "type": "atracción turística",
   "wikidata": "Q43032",
   "image_url": "http://commons.wikimedia.org/wiki/Special:FilePath/Bellano%20veduta.jpg",
   "unesco": false
  },
  {
   "id": "wd-Q189883",
   "name": "Palacio Ducal de Venecia",
   "lat": 45.433667,
   "lng": 12.340417,
   "country_code": "IT",
   "category": "monumento",
   "type": "atracción turística",
   "wikidata": "Q189883",
   "image_url": "http://commons.wikimedia.org/wiki/Special:FilePath/%28Venice%29%20Doge%27s%20Palace%20facing%20the%20sea.jpg",
   "unesco": true
  },
  {
   "id": "wd-Q637248",
   "name": "Museo Arqueológico Nacional de Nápoles",
   "lat": 40.853611,
   "lng": 14.250556,
   "country_code": "IT",
   "category": "monumento",
   "type": "atracción turística",
   "wikidata": "Q637248",
   "image_url": "http://commons.wikimedia.org/wiki/Special:FilePath/Museo%20Archeologico%20Nazionale%20di%20Napoli%20-%20panoramio%20%281%29.jpg",
   "unesco": true
  },
  {
   "id": "wd-Q15503298",
   "name": "Safari Park de Pombia",
   "lat": 45.65,
   "lng": 8.63333,
   "country_code": "IT",
   "category": "monumento",
   "type": "atracción turística",
   "wikidata": "Q15503298",
   "image_url": "http://commons.wikimedia.org/wiki/Special:FilePath/Zuliz.JPG",
   "unesco": false
  },
  {
   "id": "wd-Q524",
   "name": "Vesubio",
   "lat": 40.82261,
   "lng": 14.42919,
   "country_code": "IT",
   "category": "monumento",
   "type": "atracción turística",
   "wikidata": "Q524",
   "image_url": "http://commons.wikimedia.org/wiki/Special:FilePath/Il%20cratere%20del%20Vulcano%20-%20panoramio.jpg",
   "unesco": false
  },
  {
   "id": "wd-Q309243",
   "name": "Gran Canal",
   "lat": 45.442222,
   "lng": 12.326389,
   "country_code": "IT",
   "category": "monumento",
   "type": "atracción turística",
   "wikidata": "Q309243",
   "image_url": "http://commons.wikimedia.org/wiki/Special:FilePath/Panorama%20of%20Canal%20Grande%20and%20Ponte%20di%20Rialto%2C%20Venice%20-%20September%202017.jpg",
   "unesco": false
  },
  {
   "id": "wd-Q3071082",
   "name": "Fiabilandia",
   "lat": 44.035067,
   "lng": 12.60988,
   "country_code": "IT",
   "category": "monumento",
   "type": "atracción turística",
   "wikidata": "Q3071082",
   "image_url": "http://commons.wikimedia.org/wiki/Special:FilePath/Fiabilandia.jpg",
   "unesco": false
  },
  {
   "id": "wd-Q62149",
   "name": "Juventus Stadium",
   "lat": 45.109594,
   "lng": 7.641247,
   "country_code": "IT",
   "category": "monumento",
   "type": "atracción turística",
   "wikidata": "Q62149",
   "image_url": "http://commons.wikimedia.org/wiki/Special:FilePath/Juventus%20v%20Real%20Madrid%2C%20Champions%20League%2C%20Stadium%2C%20Turin%2C%202013.jpg",
   "unesco": false
  },
  {
   "id": "wd-Q2362714",
   "name": "Vía Montenapoleone",
   "lat": 45.46826,
   "lng": 9.1952,
   "country_code": "IT",
   "category": "monumento",
   "type": "atracción turística",
   "wikidata": "Q2362714",
   "image_url": "http://commons.wikimedia.org/wiki/Special:FilePath/Via%20Monte%20Napoleone%2C%20Milan%2C%20Italy.jpg",
   "unesco": false
  },
  {
   "id": "wd-Q124398199",
   "name": "Acqua Park Laguna Blu",
   "lat": 39.39306,
   "lng": 16.01977,
   "country_code": "IT",
   "category": "monumento",
   "type": "atracción turística",
   "wikidata": "Q124398199",
   "image_url": null,
   "unesco": false
  },
  {
   "id": "wd-Q3304975",
   "name": "Porta Alchemica",
   "lat": 41.895412,
   "lng": 12.503771,
   "country_code": "IT",
   "category": "monumento",
   "type": "atracción turística",
   "wikidata": "Q3304975",
   "image_url": "http://commons.wikimedia.org/wiki/Special:FilePath/Porta%20magica%201.JPG",
   "unesco": false
  },
  {
   "id": "wd-Q172988",
   "name": "basílica de San Marcos",
   "lat": 45.434444,
   "lng": 12.339722,
   "country_code": "IT",
   "category": "monumento",
   "type": "atracción turística",
   "wikidata": "Q172988",
   "image_url": "http://commons.wikimedia.org/wiki/Special:FilePath/Venice%20-%20St.%20Marc%27s%20Basilica%2001.jpg",
   "unesco": true
  },
  {
   "id": "wd-Q55752855",
   "name": "Saint Francis Fountain",
   "lat": 45.47603,
   "lng": 9.19207,
   "country_code": "IT",
   "category": "monumento",
   "type": "atracción turística",
   "wikidata": "Q55752855",
   "image_url": "http://commons.wikimedia.org/wiki/Special:FilePath/Monument%20of%20San%20Francesco%20Via%20Moscova%20Milano%20by%20Giannino%20Castiglioni.jpg",
   "unesco": false
  },
  {
   "id": "wd-Q3748453",
   "name": "Forre del Titerno",
   "lat": 41.3008,
   "lng": 14.538231,
   "country_code": "IT",
   "category": "monumento",
   "type": "atracción turística",
   "wikidata": "Q3748453",
   "image_url": null,
   "unesco": false
  },
  {
   "id": "wd-Q2755131",
   "name": "Leyenda de la cruz",
   "lat": 43.464539,
   "lng": 11.880861,
   "country_code": "IT",
   "category": "monumento",
   "type": "atracción turística",
   "wikidata": "Q2755131",
   "image_url": "http://commons.wikimedia.org/wiki/Special:FilePath/VeraCrocePiero.jpg",
   "unesco": false
  },
  {
   "id": "wd-Q47416",
   "name": "Sorico",
   "lat": 46.172222,
   "lng": 9.381389,
   "country_code": "IT",
   "category": "monumento",
   "type": "atracción turística",
   "wikidata": "Q47416",
   "image_url": "http://commons.wikimedia.org/wiki/Special:FilePath/Soricocentro.jpg",
   "unesco": false
  },
  {
   "id": "wd-Q68493078",
   "name": "Lake Como Poetry Way",
   "lat": 45.847527,
   "lng": 9.044295,
   "country_code": "IT",
   "category": "monumento",
   "type": "atracción turística",
   "wikidata": "Q68493078",
   "image_url": null,
   "unesco": false
  },
  {
   "id": "wd-Q271928",
   "name": "Palazzo Vecchio",
   "lat": 43.769444,
   "lng": 11.256111,
   "country_code": "IT",
   "category": "monumento",
   "type": "atracción turística",
   "wikidata": "Q271928",
   "image_url": "http://commons.wikimedia.org/wiki/Special:FilePath/Piazza%20della%20signoria%2C%20palazzo%20vecchio%2C%20veduta%2001.jpg",
   "unesco": true
  },
  {
   "id": "wd-Q38580",
   "name": "Cascada de Marmore",
   "lat": 42.551162,
   "lng": 12.715248,
   "country_code": "IT",
   "category": "monumento",
   "type": "atracción turística",
   "wikidata": "Q38580",
   "image_url": "http://commons.wikimedia.org/wiki/Special:FilePath/George%20Augustus%20Wallis%20%281761-1847%29%20-%20The%20Marble%20Falls%2C%20Terni%20-%20PD.29-1997%20-%20Fitzwilliam%20Museum.jpg",
   "unesco": true
  },
  {
   "id": "wd-Q3891510",
   "name": "Palazzo delle Paure",
   "lat": 45.855322,
   "lng": 9.389404,
   "country_code": "IT",
   "category": "monumento",
   "type": "atracción turística",
   "wikidata": "Q3891510",
   "image_url": "http://commons.wikimedia.org/wiki/Special:FilePath/Lecco%20-%20Palazzo%20delle%20Paure%20-%202024-09-08%2017-20-33%20001.jpg",
   "unesco": true
  },
  {
   "id": "wd-Q848072",
   "name": "Escalinata de la plaza de España",
   "lat": 41.90611,
   "lng": 12.48278,
   "country_code": "IT",
   "category": "monumento",
   "type": "atracción turística",
   "wikidata": "Q848072",
   "image_url": "http://commons.wikimedia.org/wiki/Special:FilePath/Scalinata%20della%20Trinit%C3%A0%20dei%20Monti.jpg",
   "unesco": false
  },
  {
   "id": "wd-Q810106",
   "name": "Basílica de Santa Clara (Asís)",
   "lat": 43.068889,
   "lng": 12.616944,
   "country_code": "IT",
   "category": "monumento",
   "type": "atracción turística",
   "wikidata": "Q810106",
   "image_url": "http://commons.wikimedia.org/wiki/Special:FilePath/Santa%20Chiara%20Assisi2.jpg",
   "unesco": true
  },
  {
   "id": "wd-Q52517",
   "name": "puente de los Suspiros",
   "lat": 45.434056,
   "lng": 12.340861,
   "country_code": "IT",
   "category": "monumento",
   "type": "atracción turística",
   "wikidata": "Q52517",
   "image_url": "http://commons.wikimedia.org/wiki/Special:FilePath/Antonio%20Contin%20-%20Ponte%20dei%20sospiri%20%28Venice%29.jpg",
   "unesco": false
  },
  {
   "id": "wd-Q3678441",
   "name": "Città della Domenica",
   "lat": 43.113153,
   "lng": 12.343253,
   "country_code": "IT",
   "category": "monumento",
   "type": "atracción turística",
   "wikidata": "Q3678441",
   "image_url": "http://commons.wikimedia.org/wiki/Special:FilePath/Sunday-city.jpg",
   "unesco": false
  },
  {
   "id": "wd-Q543489",
   "name": "Observatorio Astronómico Sormano",
   "lat": 45.882944,
   "lng": 9.229194,
   "country_code": "IT",
   "category": "monumento",
   "type": "atracción turística",
   "wikidata": "Q543489",
   "image_url": "http://commons.wikimedia.org/wiki/Special:FilePath/OsservatorioAstronomicoSormano.jpg",
   "unesco": false
  },
  {
   "id": "wd-Q61000620",
   "name": "Horti Galateae",
   "lat": 41.87875,
   "lng": 12.497528,
   "country_code": "IT",
   "category": "monumento",
   "type": "atracción turística",
   "wikidata": "Q61000620",
   "image_url": "http://commons.wikimedia.org/wiki/Special:FilePath/Portal%20%288111967583%29.jpg",
   "unesco": false
  },
  {
   "id": "wd-Q10285",
   "name": "Coliseo",
   "lat": 41.890278,
   "lng": 12.492222,
   "country_code": "IT",
   "category": "monumento",
   "type": "atracción turística",
   "wikidata": "Q10285",
   "image_url": "http://commons.wikimedia.org/wiki/Special:FilePath/Colosseo%202020.jpg",
   "unesco": true
  },
  {
   "id": "wd-Q1231343",
   "name": "Resegone",
   "lat": 45.858333,
   "lng": 9.468889,
   "country_code": "IT",
   "category": "monumento",
   "type": "atracción turística",
   "wikidata": "Q1231343",
   "image_url": "http://commons.wikimedia.org/wiki/Special:FilePath/Lecco%20and%20Resegone%20seen%20from%20San%20Tomaso.jpg",
   "unesco": false
  },
  {
   "id": "wd-Q69317783",
   "name": "Mola Casanova",
   "lat": 43.295174,
   "lng": 12.332403,
   "country_code": "IT",
   "category": "monumento",
   "type": "atracción turística",
   "wikidata": "Q69317783",
   "image_url": null,
   "unesco": false
  },
  {
   "id": "wd-Q3940062",
   "name": "Rofalco",
   "lat": 42.570278,
   "lng": 11.713056,
   "country_code": "IT",
   "category": "monumento",
   "type": "atracción turística",
   "wikidata": "Q3940062",
   "image_url": "http://commons.wikimedia.org/wiki/Special:FilePath/Plan%20of%20Rofalco.jpg",
   "unesco": true
  },
  {
   "id": "wd-Q464445",
   "name": "Canevaworld",
   "lat": 45.47806,
   "lng": 10.72639,
   "country_code": "IT",
   "category": "monumento",
   "type": "atracción turística",
   "wikidata": "Q464445",
   "image_url": "http://commons.wikimedia.org/wiki/Special:FilePath/MedievalTimesEingang.JPG",
   "unesco": false
  },
  {
   "id": "wd-Q3719016",
   "name": "Edenlandia",
   "lat": 40.822453,
   "lng": 14.182595,
   "country_code": "IT",
   "category": "monumento",
   "type": "atracción turística",
   "wikidata": "Q3719016",
   "image_url": "http://commons.wikimedia.org/wiki/Special:FilePath/Edenlandia-foto-1965-4.jpg",
   "unesco": false
  },
  {
   "id": "wd-Q3635710",
   "name": "Basilica of Saint Nicholas",
   "lat": 45.856672,
   "lng": 9.388956,
   "country_code": "IT",
   "category": "monumento",
   "type": "atracción turística",
   "wikidata": "Q3635710",
   "image_url": "http://commons.wikimedia.org/wiki/Special:FilePath/Lecco%20-%20basilica%20di%20San%20Nicol%C3%B2%20-%20facciata%20-%2001.jpg",
   "unesco": true
  },
  {
   "id": "wd-Q496312",
   "name": "Fort Montecchio",
   "lat": 46.144108,
   "lng": 9.382134,
   "country_code": "IT",
   "category": "monumento",
   "type": "atracción turística",
   "wikidata": "Q496312",
   "image_url": "http://commons.wikimedia.org/wiki/Special:FilePath/Forte%20di%20Montecchio%20Dormitorio%20e%20Polveriera.jpg",
   "unesco": true
  },
  {
   "id": "wd-Q1134128",
   "name": "Grupo Pasquino",
   "lat": 43.769167,
   "lng": 11.255556,
   "country_code": "IT",
   "category": "monumento",
   "type": "atracción turística",
   "wikidata": "Q1134128",
   "image_url": "http://commons.wikimedia.org/wiki/Special:FilePath/Pasquino%20Group%20Loggia%20dei%20Lanzi%202005%2009%2013.jpg",
   "unesco": false
  },
  {
   "id": "wd-Q2936119",
   "name": "Canale delle Moline",
   "lat": 44.498602,
   "lng": 11.346996,
   "country_code": "IT",
   "category": "monumento",
   "type": "atracción turística",
   "wikidata": "Q2936119",
   "image_url": "http://commons.wikimedia.org/wiki/Special:FilePath/Canale%20delle%20Moline%20-%20Bologna.jpg",
   "unesco": false
  },
  {
   "id": "wd-Q207808",
   "name": "Circo Máximo",
   "lat": 41.8859,
   "lng": 12.4857,
   "country_code": "IT",
   "category": "monumento",
   "type": "atracción turística",
   "wikidata": "Q207808",
   "image_url": "http://commons.wikimedia.org/wiki/Special:FilePath/Circus%20Maximus%202025.jpg",
   "unesco": false
  },
  {
   "id": "wd-Q3662907",
   "name": "Castle of Sperlinga",
   "lat": 37.765749,
   "lng": 14.353745,
   "country_code": "IT",
   "category": "monumento",
   "type": "atracción turística",
   "wikidata": "Q3662907",
   "image_url": "http://commons.wikimedia.org/wiki/Special:FilePath/Sperlinga%20castle.JPG",
   "unesco": true
  },
  {
   "id": "wd-Q550514",
   "name": "basílica de San Nicolás",
   "lat": 41.130261,
   "lng": 16.870281,
   "country_code": "IT",
   "category": "monumento",
   "type": "atracción turística",
   "wikidata": "Q550514",
   "image_url": "http://commons.wikimedia.org/wiki/Special:FilePath/Bari%20BW%202016-10-19%2013-35-11%20stitch.jpg",
   "unesco": true
  },
  {
   "id": "wd-Q2778991",
   "name": "iglesia de Ognissanti",
   "lat": 43.77251,
   "lng": 11.24598,
   "country_code": "IT",
   "category": "monumento",
   "type": "atracción turística",
   "wikidata": "Q2778991",
   "image_url": "http://commons.wikimedia.org/wiki/Special:FilePath/Chiesa%20di%20Ognissanti%2C%20Firenze%2C%20facciata.jpg",
   "unesco": true
  },
  {
   "id": "wd-Q16990",
   "name": "Monte Etna",
   "lat": 37.750835,
   "lng": 14.99322,
   "country_code": "IT",
   "category": "monumento",
   "type": "atracción turística",
   "wikidata": "Q16990",
   "image_url": "http://commons.wikimedia.org/wiki/Special:FilePath/View%20of%20Mount%20Etna%20from%20Reggio%20Calabria%20-%20Italy%20-%2010%20Feb.%202017%20-%20%281%29.jpg",
   "unesco": false
  },
  {
   "id": "wd-Q823685",
   "name": "Santa Maria sobre Minerva",
   "lat": 41.898056,
   "lng": 12.478333,
   "country_code": "IT",
   "category": "monumento",
   "type": "atracción turística",
   "wikidata": "Q823685",
   "image_url": "http://commons.wikimedia.org/wiki/Special:FilePath/Santa%20Maria%20sopra%20Minerva.jpg",
   "unesco": true
  },
  {
   "id": "wd-Q2942800",
   "name": "Sarzana Cathedral",
   "lat": 44.112222,
   "lng": 9.9625,
   "country_code": "IT",
   "category": "monumento",
   "type": "atracción turística",
   "wikidata": "Q2942800",
   "image_url": "http://commons.wikimedia.org/wiki/Special:FilePath/Concath%C3%A9drale%20Santa%20Maria%20Assunta%20-%20Sarzana%20%28IT42%29%20-%202022-08-28%20-%206.jpg",
   "unesco": false
  },
  {
   "id": "wd-Q1534505",
   "name": "gola gorropu",
   "lat": 40.185278,
   "lng": 9.501667,
   "country_code": "IT",
   "category": "monumento",
   "type": "atracción turística",
   "wikidata": "Q1534505",
   "image_url": "http://commons.wikimedia.org/wiki/Special:FilePath/Gorropu%20-%20interno.JPG",
   "unesco": false
  },
  {
   "id": "wd-Q3696356",
   "name": "Cowboyland",
   "lat": 44.968639,
   "lng": 9.013166,
   "country_code": "IT",
   "category": "monumento",
   "type": "atracción turística",
   "wikidata": "Q3696356",
   "image_url": "http://commons.wikimedia.org/wiki/Special:FilePath/Cowboyland%20Voghera-1.jpg",
   "unesco": false
  },
  {
   "id": "wd-Q3902186",
   "name": "piazza Corvetto",
   "lat": 44.410028,
   "lng": 8.938389,
   "country_code": "IT",
   "category": "monumento",
   "type": "atracción turística",
   "wikidata": "Q3902186",
   "image_url": "http://commons.wikimedia.org/wiki/Special:FilePath/Piazza%20Corvetto%20%28Genoa%29%2003.jpg",
   "unesco": false
  },
  {
   "id": "wd-Q855274",
   "name": "Bialbero di Casorzo",
   "lat": 45.004888,
   "lng": 8.323039,
   "country_code": "IT",
   "category": "monumento",
   "type": "atracción turística",
   "wikidata": "Q855274",
   "image_url": "http://commons.wikimedia.org/wiki/Special:FilePath/Bialbero%20di%20Casorzo.jpg",
   "unesco": false
  },
  {
   "id": "wd-Q3843130",
   "name": "Maggiana",
   "lat": 45.914914,
   "lng": 9.331208,
   "country_code": "IT",
   "category": "monumento",
   "type": "atracción turística",
   "wikidata": "Q3843130",
   "image_url": "http://commons.wikimedia.org/wiki/Special:FilePath/W%20-%20mandello%20-%20chiesa%20di%20san%20rocco%20in%20maggiana%20%284%29.jpg",
   "unesco": false
  },
  {
   "id": "wd-Q3891423",
   "name": "palazzo della Banca Popolare di Lecco",
   "lat": 45.852832,
   "lng": 9.38872,
   "country_code": "IT",
   "category": "monumento",
   "type": "atracción turística",
   "wikidata": "Q3891423",
   "image_url": null,
   "unesco": true
  },
  {
   "id": "wd-Q1792133",
   "name": "Via Spluga",
   "lat": 46.5163,
   "lng": 9.33183,
   "country_code": "IT",
   "category": "monumento",
   "type": "atracción turística",
   "wikidata": "Q1792133",
   "image_url": "http://commons.wikimedia.org/wiki/Special:FilePath/Cardinello01.JPG",
   "unesco": false
  },
  {
   "id": "wd-Q3840616",
   "name": "Luneur Park",
   "lat": 41.837351,
   "lng": 12.47612,
   "country_code": "IT",
   "category": "monumento",
   "type": "atracción turística",
   "wikidata": "Q3840616",
   "image_url": "http://commons.wikimedia.org/wiki/Special:FilePath/Fun%20Fair%20at%20EUR%2C%20Rome%20-%202803.jpg",
   "unesco": false
  },
  {
   "id": "wd-Q3678591",
   "name": "Città Satellite",
   "lat": 45.591575,
   "lng": 9.106876,
   "country_code": "IT",
   "category": "monumento",
   "type": "atracción turística",
   "wikidata": "Q3678591",
   "image_url": null,
   "unesco": false
  },
  {
   "id": "wd-Q1144922",
   "name": "Gardaland",
   "lat": 45.45722,
   "lng": 10.71083,
   "country_code": "IT",
   "category": "monumento",
   "type": "atracción turística",
   "wikidata": "Q1144922",
   "image_url": "http://commons.wikimedia.org/wiki/Special:FilePath/Gardaland%20-%20panoramio%20-%20Emanuela%20Meme%20Giudic%E2%80%A6.jpg",
   "unesco": false
  },
  {
   "id": "wd-Q3908713",
   "name": "Porta Furba",
   "lat": 41.866528,
   "lng": 12.54225,
   "country_code": "IT",
   "category": "monumento",
   "type": "atracción turística",
   "wikidata": "Q3908713",
   "image_url": "http://commons.wikimedia.org/wiki/Special:FilePath/Porta%20Sistus%20V%20-%20Porta%20Furba.jpg",
   "unesco": false
  },
  {
   "id": "wd-Q185382",
   "name": "Fontana di Trevi",
   "lat": 41.900833,
   "lng": 12.483056,
   "country_code": "IT",
   "category": "monumento",
   "type": "atracción turística",
   "wikidata": "Q185382",
   "image_url": "http://commons.wikimedia.org/wiki/Special:FilePath/Trevi%20Fountain%2C%20Rome%2C%20Italy%202%20-%20May%202007.jpg",
   "unesco": false
  },
  {
   "id": "wd-Q55376083",
   "name": "Archeological museum Barro",
   "lat": 45.831215,
   "lng": 9.370998,
   "country_code": "IT",
   "category": "monumento",
   "type": "atracción turística",
   "wikidata": "Q55376083",
   "image_url": null,
   "unesco": true
  },
  {
   "id": "wd-Q3673630",
   "name": "Santa Maria al Paradiso Church",
   "lat": 45.455147,
   "lng": 9.195559,
   "country_code": "IT",
   "category": "monumento",
   "type": "atracción turística",
   "wikidata": "Q3673630",
   "image_url": "http://commons.wikimedia.org/wiki/Special:FilePath/Church%20Santa%20Maria%20Paradiso%20Milan%20esterior.JPG",
   "unesco": true
  },
  {
   "id": "wd-Q207486",
   "name": "basílica de San Francisco de Asís",
   "lat": 43.07484,
   "lng": 12.60581,
   "country_code": "IT",
   "category": "monumento",
   "type": "atracción turística",
   "wikidata": "Q207486",
   "image_url": "http://commons.wikimedia.org/wiki/Special:FilePath/BasilicaDiSanFrancescoAssisiMar262024%2002.jpg",
   "unesco": true
  },
  {
   "id": "wd-Q180878",
   "name": "Mirabilandia",
   "lat": 44.337222,
   "lng": 12.263333,
   "country_code": "IT",
   "category": "monumento",
   "type": "atracción turística",
   "wikidata": "Q180878",
   "image_url": "http://commons.wikimedia.org/wiki/Special:FilePath/Mirab-img0004.JPG",
   "unesco": false
  },
  {
   "id": "wd-Q3907952",
   "name": "Ponte Azzone Visconti",
   "lat": 45.84748,
   "lng": 9.392651,
   "country_code": "IT",
   "category": "monumento",
   "type": "atracción turística",
   "wikidata": "Q3907952",
   "image_url": "http://commons.wikimedia.org/wiki/Special:FilePath/Torre%20Azzone%20Visconti%2C%20Lecco%2C%20Italia.jpg",
   "unesco": true
  },
  {
   "id": "wd-Q1053483",
   "name": "Columnas de San Lorenzo",
   "lat": 45.458245,
   "lng": 9.181031,
   "country_code": "IT",
   "category": "monumento",
   "type": "atracción turística",
   "wikidata": "Q1053483",
   "image_url": "http://commons.wikimedia.org/wiki/Special:FilePath/Colonneslorenzo.jpg",
   "unesco": false
  },
  {
   "id": "wd-Q3981886",
   "name": "Teatrino di Corte",
   "lat": 45.5938,
   "lng": 9.27321,
   "country_code": "IT",
   "category": "monumento",
   "type": "atracción turística",
   "wikidata": "Q3981886",
   "image_url": "http://commons.wikimedia.org/wiki/Special:FilePath/Teatrino%20di%20corte%20di%20Monza.jpg",
   "unesco": true
  },
  {
   "id": "wd-Q1964646",
   "name": "Porta Metronia",
   "lat": 41.8824,
   "lng": 12.4986,
   "country_code": "IT",
   "category": "monumento",
   "type": "atracción turística",
   "wikidata": "Q1964646",
   "image_url": "http://commons.wikimedia.org/wiki/Special:FilePath/Porta%20Metronia%2028%2009%202019.jpg",
   "unesco": false
  },
  {
   "id": "wd-Q509529",
   "name": "MagicLand",
   "lat": 41.765286,
   "lng": 12.956058,
   "country_code": "IT",
   "category": "monumento",
   "type": "atracción turística",
   "wikidata": "Q509529",
   "image_url": "http://commons.wikimedia.org/wiki/Special:FilePath/Magic%20innevato.jpg",
   "unesco": false
  },
  {
   "id": "wd-Q845460",
   "name": "Cavallino Matto",
   "lat": 43.181389,
   "lng": 10.548611,
   "country_code": "IT",
   "category": "monumento",
   "type": "atracción turística",
   "wikidata": "Q845460",
   "image_url": "http://commons.wikimedia.org/wiki/Special:FilePath/Baia%20dei%20Bucanieri.JPG",
   "unesco": false
  },
  {
   "id": "wd-Q201902",
   "name": "Mole Antonelliana",
   "lat": 45.06898,
   "lng": 7.69324,
   "country_code": "IT",
   "category": "monumento",
   "type": "atracción turística",
   "wikidata": "Q201902",
   "image_url": "http://commons.wikimedia.org/wiki/Special:FilePath/Mole%20Antonelliana%20in%20Turin.jpg",
   "unesco": true
  },
  {
   "id": "wd-Q55376114",
   "name": "Garlate Silk Museum",
   "lat": 45.806385,
   "lng": 9.403263,
   "country_code": "IT",
   "category": "monumento",
   "type": "atracción turística",
   "wikidata": "Q55376114",
   "image_url": null,
   "unesco": true
  },
  {
   "id": "wd-Q3881966",
   "name": "Oltremare",
   "lat": 43.9887,
   "lng": 12.6453,
   "country_code": "IT",
   "category": "monumento",
   "type": "atracción turística",
   "wikidata": "Q3881966",
   "image_url": "http://commons.wikimedia.org/wiki/Special:FilePath/Dolphinarium%20at%20Oltremare%20-%20Riccione%20%28Naturalistic-technological%20theme%20park%29.jpg",
   "unesco": false
  },
  {
   "id": "wd-Q3677153",
   "name": "Cinecittà World",
   "lat": 41.709,
   "lng": 12.4467,
   "country_code": "IT",
   "category": "monumento",
   "type": "atracción turística",
   "wikidata": "Q3677153",
   "image_url": "http://commons.wikimedia.org/wiki/Special:FilePath/Altair%20cinecitta%20world.jpg",
   "unesco": false
  },
  {
   "id": "wd-Q55373729",
   "name": "Museo degli Innocenti",
   "lat": 43.77545,
   "lng": 11.260107,
   "country_code": "IT",
   "category": "monumento",
   "type": "atracción turística",
   "wikidata": "Q55373729",
   "image_url": "http://commons.wikimedia.org/wiki/Special:FilePath/Museo%20degli%20innocenti%2C%20galleria.jpg",
   "unesco": true
  },
  {
   "id": "wd-Q3997262",
   "name": "Traghetto di Leonardo",
   "lat": 45.708126,
   "lng": 9.456527,
   "country_code": "IT",
   "category": "monumento",
   "type": "atracción turística",
   "wikidata": "Q3997262",
   "image_url": "http://commons.wikimedia.org/wiki/Special:FilePath/Traghetto%20di%20Leonardo%20-%20Il%20traghetto.jpg",
   "unesco": false
  },
  {
   "id": "wd-Q67883010",
   "name": "Peter Park",
   "lat": 43.866889,
   "lng": 12.695333,
   "country_code": "IT",
   "category": "monumento",
   "type": "atracción turística",
   "wikidata": "Q67883010",
   "image_url": "http://commons.wikimedia.org/wiki/Special:FilePath/Peter%20Park.jpg",
   "unesco": true
  },
  {
   "id": "wd-Q55586076",
   "name": "The monumental area with the monastic complex of San Salvatore-Santa Giulia",
   "lat": 45.539722,
   "lng": 10.226111,
   "country_code": "IT",
   "category": "monumento",
   "type": "atracción turística",
   "wikidata": "Q55586076",
   "image_url": null,
   "unesco": true
  },
  {
   "id": "wd-Q3902175",
   "name": "Piazza Castello",
   "lat": 45.0708,
   "lng": 7.6858,
   "country_code": "IT",
   "category": "monumento",
   "type": "atracción turística",
   "wikidata": "Q3902175",
   "image_url": "http://commons.wikimedia.org/wiki/Special:FilePath/Torino%20-%20Piazza%20Castello%20%2824269304747%29.jpg",
   "unesco": false
  },
  {
   "id": "wd-Q4012260",
   "name": "Villa Manzoni",
   "lat": 45.85254,
   "lng": 9.39901,
   "country_code": "IT",
   "category": "monumento",
   "type": "atracción turística",
   "wikidata": "Q4012260",
   "image_url": "http://commons.wikimedia.org/wiki/Special:FilePath/Villa%20Manzoni.jpg",
   "unesco": true
  },
  {
   "id": "wd-Q54803836",
   "name": "Cave of Canova",
   "lat": 45.97874,
   "lng": 9.34368,
   "country_code": "IT",
   "category": "monumento",
   "type": "atracción turística",
   "wikidata": "Q54803836",
   "image_url": "http://commons.wikimedia.org/wiki/Special:FilePath/Grotta%20di%20Canova%20a%20Esino%20Lario%2003.jpg",
   "unesco": false
  },
  {
   "id": "wd-Q18068",
   "name": "Catedral de Milán",
   "lat": 45.463968,
   "lng": 9.190578,
   "country_code": "IT",
   "category": "monumento",
   "type": "atracción turística",
   "wikidata": "Q18068",
   "image_url": "http://commons.wikimedia.org/wiki/Special:FilePath/20110724%20Milan%20Cathedral%205260.jpg",
   "unesco": true
  },
  {
   "id": "wd-Q1395937",
   "name": "Cave di Fantiscritti",
   "lat": 44.090005,
   "lng": 10.133976,
   "country_code": "IT",
   "category": "monumento",
   "type": "atracción turística",
   "wikidata": "Q1395937",
   "image_url": "http://commons.wikimedia.org/wiki/Special:FilePath/Carrara%2C%20colonnata%2C%20cava%20dei%20fantiscritti%2003.jpg",
   "unesco": false
  },
  {
   "id": "wd-Q180212",
   "name": "Foro Romano",
   "lat": 41.8922,
   "lng": 12.4852,
   "country_code": "IT",
   "category": "monumento",
   "type": "atracción turística",
   "wikidata": "Q180212",
   "image_url": "http://commons.wikimedia.org/wiki/Special:FilePath/Foro%20Romano%20Musei%20Capitolini%20Roma.jpg",
   "unesco": true
  },
  {
   "id": "wd-Q1713758",
   "name": "Fontana del Porcellino",
   "lat": 43.769886,
   "lng": 11.254233,
   "country_code": "IT",
   "category": "monumento",
   "type": "atracción turística",
   "wikidata": "Q1713758",
   "image_url": "http://commons.wikimedia.org/wiki/Special:FilePath/Logge%20del%20mercato%20nuovo%2C%20il%20porcellino.jpg",
   "unesco": false
  },
  {
   "id": "wd-Q1636207",
   "name": "Porta San Paolo",
   "lat": 41.8767,
   "lng": 12.4815,
   "country_code": "IT",
   "category": "monumento",
   "type": "atracción turística",
   "wikidata": "Q1636207",
   "image_url": "http://commons.wikimedia.org/wiki/Special:FilePath/Porta%20San%20Paolo%20%28Rome%29.jpg",
   "unesco": false
  },
  {
   "id": "wd-Q641556",
   "name": "Arena de Verona",
   "lat": 45.438889,
   "lng": 10.994444,
   "country_code": "IT",
   "category": "monumento",
   "type": "atracción turística",
   "wikidata": "Q641556",
   "image_url": "http://commons.wikimedia.org/wiki/Special:FilePath/Italy%20-%20Verona%20-%20Arena.jpg",
   "unesco": true
  },
  {
   "id": "wd-Q42790",
   "name": "Ballabio",
   "lat": 45.9,
   "lng": 9.416667,
   "country_code": "IT",
   "category": "monumento",
   "type": "atracción turística",
   "wikidata": "Q42790",
   "image_url": "http://commons.wikimedia.org/wiki/Special:FilePath/Panoramic%20view%20on%20Ballabio%20from%20the%20summit%20of%20Monte%20Melma.jpg",
   "unesco": false
  },
  {
   "id": "wd-Q4010718",
   "name": "Via Roma",
   "lat": 45.067001,
   "lng": 7.682044,
   "country_code": "IT",
   "category": "monumento",
   "type": "atracción turística",
   "wikidata": "Q4010718",
   "image_url": "http://commons.wikimedia.org/wiki/Special:FilePath/Via%20Roma%202%20Torino.JPG",
   "unesco": false
  },
  {
   "id": "wd-Q1224490",
   "name": "Sacro Monte di Varese",
   "lat": 45.854608,
   "lng": 8.794576,
   "country_code": "IT",
   "category": "monumento",
   "type": "atracción turística",
   "wikidata": "Q1224490",
   "image_url": "http://commons.wikimedia.org/wiki/Special:FilePath/Sacro%20Monte%20di%20Varese-120-Kapelle%2010-O%20vos%20omnes-Bogen-1985-gje.jpg",
   "unesco": true
  },
  {
   "id": "wd-Q34501127",
   "name": "Torre del Barbarossa",
   "lat": 45.916545,
   "lng": 9.330936,
   "country_code": "IT",
   "category": "monumento",
   "type": "atracción turística",
   "wikidata": "Q34501127",
   "image_url": "http://commons.wikimedia.org/wiki/Special:FilePath/W%20-%20mandello%20-%20torre%20maggiana%20%28top%29.jpg",
   "unesco": true
  },
  {
   "id": "wd-Q134567329",
   "name": "STEP FuturAbility",
   "lat": 45.443067,
   "lng": 9.20391,
   "country_code": "IT",
   "category": "monumento",
   "type": "atracción turística",
   "wikidata": "Q134567329",
   "image_url": null,
   "unesco": false
  },
  {
   "id": "wd-Q42412289",
   "name": "Spanish walls",
   "lat": 45.451936,
   "lng": 9.188365,
   "country_code": "IT",
   "category": "monumento",
   "type": "atracción turística",
   "wikidata": "Q42412289",
   "image_url": "http://commons.wikimedia.org/wiki/Special:FilePath/Mura%20spagnole.%20Tra%20porta%20Lodovica%20e%20largo%20Isabella%20d%27Aragona%20-%20001.jpg",
   "unesco": true
  },
  {
   "id": "wd-Q134303276",
   "name": "Fosso di Brentalone",
   "lat": 45.9668,
   "lng": 9.314239,
   "country_code": "IT",
   "category": "monumento",
   "type": "atracción turística",
   "wikidata": "Q134303276",
   "image_url": null,
   "unesco": false
  },
  {
   "id": "wd-Q112944221",
   "name": "Museo Villa Gerosa",
   "lat": 45.893281,
   "lng": 9.387868,
   "country_code": "IT",
   "category": "monumento",
   "type": "atracción turística",
   "wikidata": "Q112944221",
   "image_url": null,
   "unesco": false
  },
  {
   "id": "wd-Q50751314",
   "name": "Zucco Sileggio",
   "lat": 45.946959,
   "lng": 9.336308,
   "country_code": "IT",
   "category": "monumento",
   "type": "atracción turística",
   "wikidata": "Q50751314",
   "image_url": "http://commons.wikimedia.org/wiki/Special:FilePath/Grigna%20dallo%20Zucco%20di%20Sileggio.jpg",
   "unesco": false
  },
  {
   "id": "wd-Q131841211",
   "name": "Torrente Buria",
   "lat": 45.95052,
   "lng": 9.31379,
   "country_code": "IT",
   "category": "monumento",
   "type": "atracción turística",
   "wikidata": "Q131841211",
   "image_url": null,
   "unesco": false
  },
  {
   "id": "wd-Q112673586",
   "name": "Chiesa del Redentore (Lecco)",
   "lat": 45.8529,
   "lng": 9.4189,
   "country_code": "IT",
   "category": "monumento",
   "type": "atracción turística",
   "wikidata": "Q112673586",
   "image_url": null,
   "unesco": true
  },