{
 "country": "JP",
 "source": "wikidata",
 "count": 4286,
 "pois": [
  {
   "id": "wd-Q11082692",
   "name": "Niiza toll booth",
   "lat": 35.774467,
   "lng": 139.568369,
   "country_code": "JP",
   "category": "monumento",
   "type": "monumento",
   "wikidata": "Q11082692",
   "image_url": "http://commons.wikimedia.org/wiki/Special:FilePath/Niza%20toll%20gate.JPG",
   "unesco": false
  },
  {
   "id": "wd-Q10885914",
   "name": "Sahara toll booth",
   "lat": 35.237917,
   "lng": 139.677639,
   "country_code": "JP",
   "category": "monumento",
   "type": "monumento",
   "wikidata": "Q10885914",
   "image_url": "http://commons.wikimedia.org/wiki/Special:FilePath/Saharahonsen.JPG",
   "unesco": false
  },
  {
   "id": "wd-Q11135802",
   "name": "Ikeda interchange",
   "lat": 42.99535,
   "lng": 143.437006,
   "country_code": "JP",
   "category": "monumento",
   "type": "monumento",
   "wikidata": "Q11135802",
   "image_url": "http://commons.wikimedia.org/wiki/Special:FilePath/Doto%20Expressway%20Ikeda%20Interchange.jpg",
   "unesco": false
  },
  {
   "id": "wd-Q10921614",
   "name": "Wadayama toll gate",
   "lat": 35.286222,
   "lng": 134.822,
   "country_code": "JP",
   "category": "monumento",
   "type": "monumento",
   "wikidata": "Q10921614",
   "image_url": null,
   "unesco": false
  },
  {
   "id": "wd-Q10885946",
   "name": "Sayo toll gate",
   "lat": 35.03025,
   "lng": 134.388333,
   "country_code": "JP",
   "category": "monumento",
   "type": "monumento",
   "wikidata": "Q10885946",
   "image_url": "http://commons.wikimedia.org/wiki/Special:FilePath/Sayo%20Main%20Line%20Toll%20Gate.jpg",
   "unesco": false
  },
  {
   "id": "wd-Q11092997",
   "name": "Kisarazu-minami toll booth",
   "lat": 35.353583,
   "lng": 139.943722,
   "country_code": "JP",
   "category": "monumento",
   "type": "monumento",
   "wikidata": "Q11092997",
   "image_url": null,
   "unesco": false
  },
  {
   "id": "wd-Q11029290",
   "name": "Hiratsuka toll gate",
   "lat": 35.337028,
   "lng": 139.295556,
   "country_code": "JP",
   "category": "monumento",
   "type": "monumento",
   "wikidata": "Q11029290",
   "image_url": null,
   "unesco": false
  },
  {
   "id": "wd-Q11060245",
   "name": "Obihiro Junction",
   "lat": 42.970389,
   "lng": 143.095556,
   "country_code": "JP",
   "category": "monumento",
   "type": "monumento",
   "wikidata": "Q11060245",
   "image_url": "http://commons.wikimedia.org/wiki/Special:FilePath/Doto%20Expressway%20Obihiro%20Junction.jpg",
   "unesco": false
  },
  {
   "id": "wd-Q11149028",
   "name": "Urawa toll booth",
   "lat": 35.893222,
   "lng": 139.720333,
   "country_code": "JP",
   "category": "monumento",
   "type": "monumento",
   "wikidata": "Q11149028",
   "image_url": "http://commons.wikimedia.org/wiki/Special:FilePath/Urawa%20Toll%20Gate%2020160830%20photo%20by%20Ray%20Swi-hymn%20%2829915790561%29.jpg",
   "unesco": false
  },
  {
   "id": "wd-Q10867002",
   "name": "Misato toll gate",
   "lat": 35.865447,
   "lng": 139.8831,
   "country_code": "JP",
   "category": "monumento",
   "type": "monumento",
   "wikidata": "Q10867002",
   "image_url": "http://commons.wikimedia.org/wiki/Special:FilePath/Joban%20expressway%20Misato%20toll%20barrier.jpg",
   "unesco": false
  },
  {
   "id": "wd-Q11051106",
   "name": "Kishiwada toll booth",
   "lat": 34.4267,
   "lng": 135.448239,
   "country_code": "JP",
   "category": "monumento",
   "type": "monumento",
   "wikidata": "Q11051106",
   "image_url": "http://commons.wikimedia.org/wiki/Special:FilePath/Kishiwada%20Tollgate%201.jpg",
   "unesco": false
  },
  {
   "id": "wd-Q10904982",
   "name": "Chiba-nishi toll gate",
   "lat": 35.661342,
   "lng": 140.095211,
   "country_code": "JP",
   "category": "monumento",
   "type": "monumento",
   "wikidata": "Q10904982",
   "image_url": "http://commons.wikimedia.org/wiki/Special:FilePath/Chiba-nishi%20TB.jpg",
   "unesco": false
  },
  {
   "id": "wd-Q10875715",
   "name": "Nakajo Toll booth",
   "lat": 38.041972,
   "lng": 139.363306,
   "country_code": "JP",
   "category": "monumento",
   "type": "monumento",
   "wikidata": "Q10875715",
   "image_url": null,
   "unesco": false
  },
  {
   "id": "wd-Q11443861",
   "name": "Taishi interchange",
   "lat": 34.525833,
   "lng": 135.653194,
   "country_code": "JP",
   "category": "monumento",
   "type": "monumento",
   "wikidata": "Q11443861",
   "image_url": "http://commons.wikimedia.org/wiki/Special:FilePath/Taishi%20IC.jpg",
   "unesco": false
  },
  {
   "id": "wd-Q10892143",
   "name": "Yao toll gate",
   "lat": 34.646856,
   "lng": 135.595731,
   "country_code": "JP",
   "category": "monumento",
   "type": "monumento",
   "wikidata": "Q10892143",
   "image_url": "http://commons.wikimedia.org/wiki/Special:FilePath/Yao%20Tollgate%201.jpg",
   "unesco": false
  },
  {
   "id": "wd-Q11281494",
   "name": "Rinku toll booth",
   "lat": 34.882028,
   "lng": 136.824417,
   "country_code": "JP",
   "category": "monumento",
   "type": "monumento",
   "wikidata": "Q11281494",
   "image_url": null,
   "unesco": false
  },
  {
   "id": "wd-Q2259037",
   "name": "Yokoshiro exit",
   "lat": 33.839778,
   "lng": 130.8975,
   "country_code": "JP",
   "category": "monumento",
   "type": "monumento",
   "wikidata": "Q2259037",
   "image_url": null,
   "unesco": false
  },
  {
   "id": "wd-Q11108037",
   "name": "Kashiwara toll booth",
   "lat": 34.555594,
   "lng": 135.641133,
   "country_code": "JP",
   "category": "monumento",
   "type": "monumento",
   "wikidata": "Q11108037",
   "image_url": "http://commons.wikimedia.org/wiki/Special:FilePath/Kashiwara%20Tollgate1.jpg",
   "unesco": false
  },
  {
   "id": "wd-Q10932787",
   "name": "Tajihaya toll booth",
   "lat": 34.549583,
   "lng": 135.569972,
   "country_code": "JP",
   "category": "monumento",
   "type": "monumento",
   "wikidata": "Q10932787",
   "image_url": "http://commons.wikimedia.org/wiki/Special:FilePath/Tajihaya%20Tollgate%2001.jpg",
   "unesco": false
  },
  {
   "id": "wd-Q10887570",
   "name": "Hodogaya toll booth",
   "lat": 35.484056,
   "lng": 139.593944,
   "country_code": "JP",
   "category": "monumento",
   "type": "monumento",
   "wikidata": "Q10887570",
   "image_url": "http://commons.wikimedia.org/wiki/Special:FilePath/DaisanKeihin%2002.jpg",
   "unesco": false
  },
  {
   "id": "wd-Q11132552",
   "name": "Eifuku toll booth",
   "lat": 35.667983,
   "lng": 139.644186,
   "country_code": "JP",
   "category": "monumento",
   "type": "monumento",
   "wikidata": "Q11132552",
   "image_url": null,
   "unesco": false
  },
  {
   "id": "wd-Q10930668",
   "name": "Sakai toll booth",
   "lat": 34.528989,
   "lng": 135.512706,
   "country_code": "JP",
   "category": "monumento",
   "type": "monumento",
   "wikidata": "Q10930668",
   "image_url": null,
   "unesco": false
  },
  {
   "id": "wd-Q10892299",
   "name": "Hachioji toll gate",
   "lat": 35.677222,
   "lng": 139.347778,
   "country_code": "JP",
   "category": "monumento",
   "type": "monumento",
   "wikidata": "Q10892299",
   "image_url": "http://commons.wikimedia.org/wiki/Special:FilePath/Chuo%20Expressway%20Hachioji%20Toll%20Gate.jpg",
   "unesco": false
  },
  {
   "id": "wd-Q11034718",
   "name": "Komoro-Mikage Toll Booth",
   "lat": 36.298806,
   "lng": 138.476667,
   "country_code": "JP",
   "category": "monumento",
   "type": "monumento",
   "wikidata": "Q11034718",
   "image_url": "http://commons.wikimedia.org/wiki/Special:FilePath/Komoro-Mikage%20Toll%20BoothJPG.jpg",
   "unesco": false
  },
  {
   "id": "wd-Q10936403",
   "name": "Ozu toll booth",
   "lat": 33.535306,
   "lng": 132.588028,
   "country_code": "JP",
   "category": "monumento",
   "type": "monumento",
   "wikidata": "Q10936403",
   "image_url": "http://commons.wikimedia.org/wiki/Special:FilePath/Oozuinta%2001.jpg",
   "unesco": false
  },
  {
   "id": "wd-Q11075411",
   "name": "Totsuka toll booth",
   "lat": 35.423056,
   "lng": 139.539444,
   "country_code": "JP",
   "category": "monumento",
   "type": "monumento",
   "wikidata": "Q11075411",
   "image_url": null,
   "unesco": false
  },
  {
   "id": "wd-Q11470441",
   "name": "Yamada toll booth",
   "lat": 31.568583,
   "lng": 130.501833,
   "country_code": "JP",
   "category": "monumento",
   "type": "monumento",
   "wikidata": "Q11470441",
   "image_url": "http://commons.wikimedia.org/wiki/Special:FilePath/Ibusuki%20Skyline%20Yamada%20Toll%20Gate.JPG",
   "unesco": false
  },
  {
   "id": "wd-Q10904631",
   "name": "Jumonji toll booth",
   "lat": 39.232222,
   "lng": 140.519194,
   "country_code": "JP",
   "category": "monumento",
   "type": "monumento",
   "wikidata": "Q10904631",
   "image_url": "http://commons.wikimedia.org/wiki/Special:FilePath/Jumonji%20TB%20in%20Akita.jpg",
   "unesco": false
  },
  {
   "id": "wd-Q11361191",
   "name": "Shimoda toll booth",
   "lat": 40.622583,
   "lng": 141.406222,
   "country_code": "JP",
   "category": "monumento",
   "type": "monumento",
   "wikidata": "Q11361191",
   "image_url": null,
   "unesco": false
  },
  {
   "id": "wd-Q10959619",
   "name": "Oze toll booth",
   "lat": 34.66825,
   "lng": 135.71525,
   "country_code": "JP",
   "category": "monumento",
   "type": "monumento",
   "wikidata": "Q10959619",
   "image_url": "http://commons.wikimedia.org/wiki/Special:FilePath/Daini-Hanna%20Road%20Oze%20Toll%20Gate01.jpg",
   "unesco": false
  },
  {
   "id": "wd-Q10950696",
   "name": "Miyazu-Amanohashidate interchange",
   "lat": 35.513889,
   "lng": 135.19325,
   "country_code": "JP",
   "category": "monumento",
   "type": "monumento",
   "wikidata": "Q10950696",
   "image_url": "http://commons.wikimedia.org/wiki/Special:FilePath/Miyadu-Amanohashidate%20IC.JPG",
   "unesco": false
  },
  {
   "id": "wd-Q10936306",
   "name": "Oharu toll gate",
   "lat": 35.160556,
   "lng": 136.817681,
   "country_code": "JP",
   "category": "monumento",
   "type": "monumento",
   "wikidata": "Q10936306",
   "image_url": "http://commons.wikimedia.org/wiki/Special:FilePath/Oharu%20Toll%20Gate%2020160104A.JPG",
   "unesco": false
  },
  {
   "id": "wd-Q11104252",
   "name": "Matsubara toll booth",
   "lat": 34.58465,
   "lng": 135.588392,
   "country_code": "JP",
   "category": "monumento",
   "type": "monumento",
   "wikidata": "Q11104252",
   "image_url": "http://commons.wikimedia.org/wiki/Special:FilePath/Matsubara%20TB.JPG",
   "unesco": false
  },
  {
   "id": "wd-Q10932374",
   "name": "Misato-Chuo toll booth",
   "lat": 35.830836,
   "lng": 139.865719,
   "country_code": "JP",
   "category": "monumento",
   "type": "monumento",
   "wikidata": "Q10932374",
   "image_url": "http://commons.wikimedia.org/wiki/Special:FilePath/Gaikan%20Misato-higashi%20Toll%20gate1.jpg",
   "unesco": false
  },
  {
   "id": "wd-Q10867149",
   "name": "Mitaka toll booth",
   "lat": 35.672081,
   "lng": 139.572728,
   "country_code": "JP",
   "category": "monumento",
   "type": "monumento",
   "wikidata": "Q10867149",
   "image_url": null,
   "unesco": false
  },
  {
   "id": "wd-Q11454349",
   "name": "Miyazaki toll gate",
   "lat": 31.867572,
   "lng": 131.398303,
   "country_code": "JP",
   "category": "monumento",
   "type": "monumento",
   "wikidata": "Q11454349",
   "image_url": null,
   "unesco": false
  },
  {
   "id": "wd-Q11088794",
   "name": "Kasuga interchange",
   "lat": 35.164306,
   "lng": 135.118944,
   "country_code": "JP",
   "category": "monumento",
   "type": "monumento",
   "wikidata": "Q11088794",
   "image_url": "http://commons.wikimedia.org/wiki/Special:FilePath/Kasuga%20I.C.JPG",
   "unesco": false
  },
  {
   "id": "wd-Q11385266",
   "name": "Yoichi interchange",
   "lat": 43.181389,
   "lng": 140.822222,
   "country_code": "JP",
   "category": "monumento",
   "type": "monumento",
   "wikidata": "Q11385266",
   "image_url": null,
   "unesco": false
  },
  {
   "id": "wd-Q11392251",
   "name": "Mutsukawa toll booth",
   "lat": 35.423472,
   "lng": 139.580972,
   "country_code": "JP",
   "category": "monumento",
   "type": "monumento",
   "wikidata": "Q11392251",
   "image_url": null,
   "unesco": false
  },
  {
   "id": "wd-Q10917755",
   "name": "Nagoya-nishi toll booth",
   "lat": 35.154372,
   "lng": 136.806683,
   "country_code": "JP",
   "category": "monumento",
   "type": "monumento",
   "wikidata": "Q10917755",
   "image_url": "http://commons.wikimedia.org/wiki/Special:FilePath/Nagoya-nishi%20Tollgate1.jpg",
   "unesco": false
  },
  {
   "id": "wd-Q11093490",
   "name": "Sapporo-nishi interchange",
   "lat": 43.090525,
   "lng": 141.2649,
   "country_code": "JP",
   "category": "monumento",
   "type": "monumento",
   "wikidata": "Q11093490",
   "image_url": null,
   "unesco": false
  },
  {
   "id": "wd-Q11102924",
   "name": "Tokyo toll booth",
   "lat": 35.594375,
   "lng": 139.573444,
   "country_code": "JP",
   "category": "monumento",
   "type": "monumento",
   "wikidata": "Q11102924",
   "image_url": null,
   "unesco": false
  },
  {
   "id": "wd-Q10959730",
   "name": "Odawara toll gate",
   "lat": 35.288222,
   "lng": 139.173778,
   "country_code": "JP",
   "category": "monumento",
   "type": "monumento",
   "wikidata": "Q10959730",
   "image_url": null,
   "unesco": false
  },
  {
   "id": "wd-Q10892223",
   "name": "Yagi-nishi interchange",
   "lat": 35.092028,
   "lng": 135.500861,
   "country_code": "JP",
   "category": "monumento",
   "type": "monumento",
   "wikidata": "Q10892223",
   "image_url": null,
   "unesco": false
  },
  {
   "id": "wd-Q11042037",
   "name": "Onomichi toll gate",
   "lat": 34.467194,
   "lng": 133.190056,
   "country_code": "JP",
   "category": "monumento",
   "type": "monumento",
   "wikidata": "Q11042037",
   "image_url": "http://commons.wikimedia.org/wiki/Special:FilePath/Onomichi%20Toll%20Gate%2002.JPG",
   "unesco": false
  },
  {
   "id": "wd-Q10940466",
   "name": "Tenri toll booth",
   "lat": 34.616761,
   "lng": 135.811831,
   "country_code": "JP",
   "category": "monumento",
   "type": "monumento",
   "wikidata": "Q10940466",
   "image_url": "http://commons.wikimedia.org/wiki/Special:FilePath/Tenri%20Tollgate1.jpg",
   "unesco": false
  },
  {
   "id": "wd-Q11092575",
   "name": "Asari interchange",
   "lat": 43.168064,
   "lng": 141.050708,
   "country_code": "JP",
   "category": "monumento",
   "type": "monumento",
   "wikidata": "Q11092575",
   "image_url": "http://commons.wikimedia.org/wiki/Special:FilePath/Asari%20IC.JPG",
   "unesco": false
  },
  {
   "id": "wd-Q10938595",
   "name": "Odaka toll booth",
   "lat": 35.038667,
   "lng": 136.934167,
   "country_code": "JP",
   "category": "monumento",
   "type": "monumento",
   "wikidata": "Q10938595",
   "image_url": "http://commons.wikimedia.org/wiki/Special:FilePath/Odaka%20TOLL%20GATE%2020150714A.JPG",
   "unesco": false
  },
  {
   "id": "wd-Q10892289",
   "name": "Yashio toll booth",
   "lat": 35.810444,
   "lng": 139.842389,
   "country_code": "JP",
   "category": "monumento",
   "type": "monumento",
   "wikidata": "Q10892289",
   "image_url": "http://commons.wikimedia.org/wiki/Special:FilePath/Metropolitan%20Expressway%20No.%206%20Misato%20line%20Yashio%20main%20lane%20toll%20gate%201.jpg",
   "unesco": false
  },
  {
   "id": "wd-Q2648519",
   "name": "Kadogawa toll gate",
   "lat": 32.502911,
   "lng": 131.662131,
   "country_code": "JP",
   "category": "monumento",
   "type": "monumento",
   "wikidata": "Q2648519",
   "image_url": "http://commons.wikimedia.org/wiki/Special:FilePath/Kadogawa%20Toll%20Gate%202014.JPG",
   "unesco": false
  },
  {
   "id": "wd-Q10954014",
   "name": "Fujiyoshida interchange",
   "lat": 35.48075,
   "lng": 138.772086,
   "country_code": "JP",
   "category": "monumento",
   "type": "monumento",
   "wikidata": "Q10954014",
   "image_url": "http://commons.wikimedia.org/wiki/Special:FilePath/Higashi-Fujigoko%20Road%20Fujiyoshida%20Interchange.jpg",
   "unesco": false
  },
  {
   "id": "wd-Q11174026",
   "name": "Tsuruoka JCT toll booth",
   "lat": 38.740083,
   "lng": 139.778556,
   "country_code": "JP",
   "category": "monumento",
   "type": "monumento",
   "wikidata": "Q11174026",
   "image_url": null,
   "unesco": false
  },
  {
   "id": "wd-Q10936407",
   "name": "Ozu-Matsuo toll gate",
   "lat": 33.469333,
   "lng": 132.54675,
   "country_code": "JP",
   "category": "monumento",
   "type": "monumento",
   "wikidata": "Q10936407",
   "image_url": "http://commons.wikimedia.org/wiki/Special:FilePath/Oozumatuotb%2001.jpg",
   "unesco": false
  },
  {
   "id": "wd-Q10931480",
   "name": "Shibetsu-Kenbuchi interchange",
   "lat": 44.142081,
   "lng": 142.401608,
   "country_code": "JP",
   "category": "monumento",
   "type": "monumento",
   "wikidata": "Q10931480",
   "image_url": "http://commons.wikimedia.org/wiki/Special:FilePath/Hokkaido%20Expressway%20Shibetsu-Kenbuchi%20Toll%20Gate.jpg",
   "unesco": false
  },
  {
   "id": "wd-Q10884858",
   "name": "Ise toll gate",
   "lat": 34.471583,
   "lng": 136.708833,
   "country_code": "JP",
   "category": "monumento",
   "type": "monumento",
   "wikidata": "Q10884858",
   "image_url": "http://commons.wikimedia.org/wiki/Special:FilePath/Ise%20toll%20gate.jpg",
   "unesco": false
  },
  {
   "id": "wd-Q10883216",
   "name": "Kyotanabe toll gate",
   "lat": 34.841008,
   "lng": 135.723531,
   "country_code": "JP",
   "category": "monumento",
   "type": "monumento",
   "wikidata": "Q10883216",
   "image_url": "http://commons.wikimedia.org/wiki/Special:FilePath/Kyotanabe%20TB.jpg",
   "unesco": false
  },
  {
   "id": "wd-Q11087030",
   "name": "Hayashima interchange",
   "lat": 34.601617,
   "lng": 133.811158,
   "country_code": "JP",
   "category": "monumento",
   "type": "monumento",
   "wikidata": "Q11087030",
   "image_url": null,
   "unesco": false
  },
  {
   "id": "wd-Q11397067",
   "name": "Maebara toll booth",
   "lat": 33.542361,
   "lng": 130.202028,
   "country_code": "JP",
   "category": "monumento",
   "type": "monumento",
   "wikidata": "Q11397067",
   "image_url": "http://commons.wikimedia.org/wiki/Special:FilePath/%E5%89%8D%E5%8E%9F%E6%96%99%E9%87%91%E6%89%80.jpg",
   "unesco": false
  },
  {
   "id": "wd-Q11632814",
   "name": "Taniyama toll booth",
   "lat": 31.523106,
   "lng": 130.484581,
   "country_code": "JP",
   "category": "monumento",
   "type": "monumento",
   "wikidata": "Q11632814",
   "image_url": "http://commons.wikimedia.org/wiki/Special:FilePath/Taniyama-TB.jpg",
   "unesco": false
  },
  {
   "id": "wd-Q11479808",
   "name": "Oguraike toll booth",
   "lat": 34.9094,
   "lng": 135.74955,
   "country_code": "JP",
   "category": "monumento",
   "type": "monumento",
   "wikidata": "Q11479808",
   "image_url": null,
   "unesco": false
  },
  {
   "id": "wd-Q11608927",
   "name": "Bijogi junction",
   "lat": 35.82275,
   "lng": 139.641722,
   "country_code": "JP",
   "category": "monumento",
   "type": "monumento",
   "wikidata": "Q11608927",
   "image_url": "http://commons.wikimedia.org/wiki/Special:FilePath/Bijogi%20JCT%20Tollgate%201.jpg",
   "unesco": false
  },
  {
   "id": "wd-Q28811166",
   "name": "Sueyoshi-Takarabe toll gate",
   "lat": 31.681,
   "lng": 130.937667,
   "country_code": "JP",
   "category": "monumento",
   "type": "monumento",
   "wikidata": "Q28811166",
   "image_url": "http://commons.wikimedia.org/wiki/Special:FilePath/Sueyoshi-Takarabe%20Toll%20Gate%202016.JPG",
   "unesco": false
  },
  {
   "id": "wd-Q28268424",
   "name": "Onumakoen toll gate",
   "lat": 42.021111,
   "lng": 140.612056,
   "country_code": "JP",
   "category": "monumento",
   "type": "monumento",
   "wikidata": "Q28268424",
   "image_url": null,
   "unesco": false
  },
  {
   "id": "wd-Q11560692",
   "name": "Kiyotake-minami toll gate",
   "lat": 31.840278,
   "lng": 131.358847,
   "country_code": "JP",
   "category": "monumento",
   "type": "monumento",
   "wikidata": "Q11560692",
   "image_url": "http://commons.wikimedia.org/wiki/Special:FilePath/%E6%B8%85%E6%AD%A6%E5%8D%97IC.jpg",
   "unesco": false
  },
  {
   "id": "wd-Q11665907",
   "name": "Hida-Kiyomi interchange",
   "lat": 36.132494,
   "lng": 137.075428,
   "country_code": "JP",
   "category": "monumento",
   "type": "monumento",
   "wikidata": "Q11665907",
   "image_url": "http://commons.wikimedia.org/wiki/Special:FilePath/Hidakiyomi%20IC.jpg",
   "unesco": false
  },
  {
   "id": "wd-Q11580512",
   "name": "Shirauo-bashi toll gate",
   "lat": 35.674167,
   "lng": 139.771389,
   "country_code": "JP",
   "category": "monumento",
   "type": "monumento",
   "wikidata": "Q11580512",
   "image_url": "http://commons.wikimedia.org/wiki/Special:FilePath/Shirauo-bashi%20toll%20gate.jpg",
   "unesco": false
  },
  {
   "id": "wd-Q28598890",
   "name": "Yasugi toll booth",
   "lat": 35.417194,
   "lng": 133.26,
   "country_code": "JP",
   "category": "monumento",
   "type": "monumento",
   "wikidata": "Q28598890",
   "image_url": "http://commons.wikimedia.org/wiki/Special:FilePath/Yasugi%20Toll%20Gate%20No.2.jpg",
   "unesco": false
  },
  {
   "id": "wd-Q11595735",
   "name": "Akita airport toll booth",
   "lat": 39.635417,
   "lng": 140.179,
   "country_code": "JP",
   "category": "monumento",
   "type": "monumento",
   "wikidata": "Q11595735",
   "image_url": "http://commons.wikimedia.org/wiki/Special:FilePath/Akita-Airport%20Honsen%20TB%20120902.jpg",
   "unesco": false
  },
  {
   "id": "wd-Q28649114",
   "name": "Seika-Shimokoma toll gate",
   "lat": 34.775556,
   "lng": 135.773583,
   "country_code": "JP",
   "category": "monumento",
   "type": "monumento",
   "wikidata": "Q28649114",
   "image_url": null,
   "unesco": false
  },
  {
   "id": "wd-Q11655073",
   "name": "Kadoma toll gate",
   "lat": 34.717722,
   "lng": 135.594083,
   "country_code": "JP",
   "category": "monumento",
   "type": "monumento",
   "wikidata": "Q11655073",
   "image_url": null,
   "unesco": false
  },
  {
   "id": "wd-Q11590218",
   "name": "Kobe-nishi toll booth",
   "lat": 34.729972,
   "lng": 135.085083,
   "country_code": "JP",
   "category": "monumento",
   "type": "monumento",
   "wikidata": "Q11590218",
   "image_url": null,
   "unesco": false
  },
  {
   "id": "wd-Q28263588",
   "name": "Kuromatsunai JCT Toll Gate",
   "lat": 42.644083,
   "lng": 140.437694,
   "country_code": "JP",
   "category": "monumento",
   "type": "monumento",
   "wikidata": "Q28263588",
   "image_url": null,
   "unesco": false
  },
  {
   "id": "wd-Q11557735",
   "name": "Hamamatsu-inasa Kita interchange",
   "lat": 34.888967,
   "lng": 137.668916,
   "country_code": "JP",
   "category": "monumento",
   "type": "monumento",
   "wikidata": "Q11557735",
   "image_url": "http://commons.wikimedia.org/wiki/Special:FilePath/Hamamatsu-Inasa-kita.jpg",
   "unesco": false
  },
  {
   "id": "wd-Q28692232",
   "name": "Fujikawa toll booth",
   "lat": 35.55425,
   "lng": 138.4705,
   "country_code": "JP",
   "category": "monumento",
   "type": "monumento",
   "wikidata": "Q28692232",
   "image_url": "http://commons.wikimedia.org/wiki/Special:FilePath/Chubu%20Odan%20Expressway%20Fujikawa-Honsen%20Main%20line%20Toll%20Gate.jpg",
   "unesco": false
  },
  {
   "id": "wd-Q11584018",
   "name": "Yabuki toll gate",
   "lat": 37.200417,
   "lng": 140.365667,
   "country_code": "JP",
   "category": "monumento",
   "type": "monumento",
   "wikidata": "Q11584018",
   "image_url": "http://commons.wikimedia.org/wiki/Special:FilePath/YabukiTB-photo.jpg",
   "unesco": false
  },
  {
   "id": "wd-Q11604108",
   "name": "Yonago toll gate",
   "lat": 35.422194,
   "lng": 133.400361,
   "country_code": "JP",
   "category": "monumento",
   "type": "monumento",
   "wikidata": "Q11604108",
   "image_url": "http://commons.wikimedia.org/wiki/Special:FilePath/Yonago%20Toll%20Gate.jpg",
   "unesco": false
  },
  {
   "id": "wd-Q17230334",
   "name": "Mashiki toll gate",
   "lat": 32.751444,
   "lng": 130.797306,
   "country_code": "JP",
   "category": "monumento",
   "type": "monumento",
   "wikidata": "Q17230334",
   "image_url": "http://commons.wikimedia.org/wiki/Special:FilePath/Kyushu-chuo%20expwy%20mashiki-tollgate.jpg",
   "unesco": false
  },
  {
   "id": "wd-Q11628104",
   "name": "Nishikawa toll booth",
   "lat": 38.42475,
   "lng": 140.162917,
   "country_code": "JP",
   "category": "monumento",
   "type": "monumento",
   "wikidata": "Q11628104",
   "image_url": null,
   "unesco": false
  },
  {
   "id": "wd-Q28834990",
   "name": "Sasebo-Daito toll gate",
   "lat": 33.147167,
   "lng": 129.775139,
   "country_code": "JP",
   "category": "monumento",
   "type": "monumento",
   "wikidata": "Q28834990",
   "image_url": null,
   "unesco": false
  },
  {
   "id": "wd-Q11664553",
   "name": "Susaki-higashi toll gate",
   "lat": 33.423222,
   "lng": 133.302278,
   "country_code": "JP",
   "category": "monumento",
   "type": "monumento",
   "wikidata": "Q11664553",
   "image_url": "http://commons.wikimedia.org/wiki/Special:FilePath/Susaki-Higashi%20Toll%20gate.JPG",
   "unesco": false
  },
  {
   "id": "wd-Q28317191",
   "name": "Naruto toll gate",
   "lat": 34.174583,
   "lng": 134.57875,
   "country_code": "JP",
   "category": "monumento",
   "type": "monumento",
   "wikidata": "Q28317191",
   "image_url": "http://commons.wikimedia.org/wiki/Special:FilePath/Naruto%20Mainline%20toll.JPG",
   "unesco": false
  },
  {
   "id": "wd-Q28477595",
   "name": "Naruse-Okumatsushima toll gate",
   "lat": 38.4105,
   "lng": 141.133583,
   "country_code": "JP",
   "category": "monumento",
   "type": "monumento",
   "wikidata": "Q28477595",
   "image_url": "http://commons.wikimedia.org/wiki/Special:FilePath/Sanriku%20Expressway%20Naruse-Okumatsushima%20Toll%20Gate.jpg",
   "unesco": false
  },
  {
   "id": "wd-Q28737332",
   "name": "Saiki toll gate",
   "lat": 32.976139,
   "lng": 131.86325,
   "country_code": "JP",
   "category": "monumento",
   "type": "monumento",
   "wikidata": "Q28737332",
   "image_url": "http://commons.wikimedia.org/wiki/Special:FilePath/Saiki%20ic.jpg",
   "unesco": false
  },
  {
   "id": "wd-Q28124626",
   "name": "Nishihara JCT toll booth",
   "lat": 26.221583,
   "lng": 127.738889,
   "country_code": "JP",
   "category": "monumento",
   "type": "monumento",
   "wikidata": "Q28124626",
   "image_url": "http://commons.wikimedia.org/wiki/Special:FilePath/Nishihara%20JCT%20TOLL%20GATE-20120816.jpg",
   "unesco": false
  },
  {
   "id": "wd-Q28681383",
   "name": "Hikawa toll gate",
   "lat": 35.367611,
   "lng": 132.840056,
   "country_code": "JP",
   "category": "monumento",
   "type": "monumento",
   "wikidata": "Q28681383",
   "image_url": "http://commons.wikimedia.org/wiki/Special:FilePath/Hikawa%20Main%20Line%20Toll%20Gate.jpg",
   "unesco": false
  },
  {
   "id": "wd-Q11648067",
   "name": "Kamariya toll booth",
   "lat": 35.355611,
   "lng": 139.603889,
   "country_code": "JP",
   "category": "monumento",
   "type": "monumento",
   "wikidata": "Q11648067",
   "image_url": "http://commons.wikimedia.org/wiki/Special:FilePath/Yokoyoko%20Kamariya%20Tollgate01.JPG",
   "unesco": false
  },
  {
   "id": "wd-Q11592940",
   "name": "Fukuoka-nishi toll gate",
   "lat": 33.569333,
   "lng": 131.294722,
   "country_code": "JP",
   "category": "monumento",
   "type": "monumento",
   "wikidata": "Q11592940",
   "image_url": null,
   "unesco": false
  },
  {
   "id": "wd-Q11662035",
   "name": "Aomori-Chuo toll booth",
   "lat": 40.795972,
   "lng": 140.745667,
   "country_code": "JP",
   "category": "monumento",
   "type": "monumento",
   "wikidata": "Q11662035",
   "image_url": "http://commons.wikimedia.org/wiki/Special:FilePath/Aomori-ch%C5%AB%C5%8D%20Toll%20Gate.jpg",
   "unesco": false
  },
  {
   "id": "wd-Q11627621",
   "name": "Nishinomiya-Yamaguchi junction",
   "lat": 34.834756,
   "lng": 135.262458,
   "country_code": "JP",
   "category": "monumento",
   "type": "monumento",
   "wikidata": "Q11627621",
   "image_url": null,
   "unesco": false
  },
  {
   "id": "wd-Q11572569",
   "name": "Tamagawa toll booth",
   "lat": 35.599944,
   "lng": 139.633167,
   "country_code": "JP",
   "category": "monumento",
   "type": "monumento",
   "wikidata": "Q11572569",
   "image_url": null,
   "unesco": false
  },
  {
   "id": "wd-Q11609039",
   "name": "Miyama toll gate",
   "lat": 31.638128,
   "lng": 130.358211,
   "country_code": "JP",
   "category": "monumento",
   "type": "monumento",
   "wikidata": "Q11609039",
   "image_url": "http://commons.wikimedia.org/wiki/Special:FilePath/Miyama%20TollBarrier%202021.jpg",
   "unesco": false
  },
  {
   "id": "wd-Q28237578",
   "name": "Tomakomai-higashi toll gate",
   "lat": 42.709583,
   "lng": 141.655639,
   "country_code": "JP",
   "category": "monumento",
   "type": "monumento",
   "wikidata": "Q28237578",
   "image_url": null,
   "unesco": false
  },
  {
   "id": "wd-Q11642458",
   "name": "Tosaka Tunnel",
   "lat": 35.303639,
   "lng": 134.923167,
   "country_code": "JP",
   "category": "monumento",
   "type": "monumento",
   "wikidata": "Q11642458",
   "image_url": "http://commons.wikimedia.org/wiki/Special:FilePath/Tozaka%20Tunnel%20Tollgate.JPG",
   "unesco": false
  },
  {
   "id": "wd-Q28234962",
   "name": "Sapporo-minami toll gate",
   "lat": 43.014972,
   "lng": 141.464222,
   "country_code": "JP",
   "category": "monumento",
   "type": "monumento",
   "wikidata": "Q28234962",
   "image_url": "http://commons.wikimedia.org/wiki/Special:FilePath/Sapporo%20Minami%20Toll%20Gate.jpg",
   "unesco": false
  },
  {
   "id": "wd-Q28147763",
   "name": "Sakata toll booth",
   "lat": 38.86925,
   "lng": 139.839472,
   "country_code": "JP",
   "category": "monumento",
   "type": "monumento",
   "wikidata": "Q28147763",
   "image_url": null,
   "unesco": false
  },
  {
   "id": "wd-Q28325900",
   "name": "Sakaide toll gate",
   "lat": 34.297528,
   "lng": 133.844111,
   "country_code": "JP",
   "category": "monumento",
   "type": "monumento",
   "wikidata": "Q28325900",
   "image_url": null,
   "unesco": false
  },
  {
   "id": "wd-Q11593779",
   "name": "Fukusaki-kita toll booth",
   "lat": 34.956583,
   "lng": 134.770111,
   "country_code": "JP",
   "category": "monumento",
   "type": "monumento",
   "wikidata": "Q11593779",
   "image_url": null,
   "unesco": false
  },
  {
   "id": "wd-Q11614237",
   "name": "Funabashi toll booth",
   "lat": 35.696236,
   "lng": 139.974431,
   "country_code": "JP",
   "category": "monumento",
   "type": "monumento",
   "wikidata": "Q11614237",
   "image_url": "http://commons.wikimedia.org/wiki/Special:FilePath/Funabasi%20TB.jpg",
   "unesco": false
  },
  {
   "id": "wd-Q22810645",
   "name": "Hanamaki Airport Toll Gate",
   "lat": 39.4085,
   "lng": 141.151611,
   "country_code": "JP",
   "category": "monumento",
   "type": "monumento",
   "wikidata": "Q22810645",
   "image_url": "http://commons.wikimedia.org/wiki/Special:FilePath/Hanamaki-AirportTB.jpg",
   "unesco": false
  },
  {
   "id": "wd-Q11593783",
   "name": "Fukusaki-minami toll booth",
   "lat": 34.933917,
   "lng": 134.759667,
   "country_code": "JP",
   "category": "monumento",
   "type": "monumento",
   "wikidata": "Q11593783",
   "image_url": null,
   "unesco": false
  },
  {
   "id": "wd-Q28060562",
   "name": "Fukushima junction toll booth",
   "lat": 37.792,
   "lng": 140.414639,
   "country_code": "JP",
   "category": "monumento",
   "type": "monumento",
   "wikidata": "Q28060562",
   "image_url": "http://commons.wikimedia.org/wiki/Special:FilePath/Fukushima-JCT%20TB.jpg",
   "unesco": false
  },
  {
   "id": "wd-Q28368152",
   "name": "Mine-higashi toll gate",
   "lat": 34.174861,
   "lng": 131.322389,
   "country_code": "JP",
   "category": "monumento",
   "type": "monumento",
   "wikidata": "Q28368152",
   "image_url": null,
   "unesco": false
  },
  {
   "id": "wd-Q28248664",
   "name": "Pippu junction toll gate",
   "lat": 43.921389,
   "lng": 142.472833,
   "country_code": "JP",
   "category": "monumento",
   "type": "monumento",
   "wikidata": "Q28248664",
   "image_url": null,
   "unesco": false
  },
  {
   "id": "wd-Q28475080",
   "name": "Innai toll gate",
   "lat": 33.473778,
   "lng": 131.334889,
   "country_code": "JP",
   "category": "monumento",
   "type": "monumento",
   "wikidata": "Q28475080",
   "image_url": null,
   "unesco": false
  },
  {
   "id": "wd-Q11664668",
   "name": "Suma interchange",
   "lat": 34.650806,
   "lng": 135.106556,
   "country_code": "JP",
   "category": "monumento",
   "type": "monumento",
   "wikidata": "Q11664668",
   "image_url": null,
   "unesco": false
  },
  {
   "id": "wd-Q11573736",
   "name": "Kotooka-Moritake toll booth",
   "lat": 40.036389,
   "lng": 140.089167,
   "country_code": "JP",
   "category": "monumento",
   "type": "monumento",
   "wikidata": "Q11573736",
   "image_url": "http://commons.wikimedia.org/wiki/Special:FilePath/Kotooka-moritake.jpg",
   "unesco": false
  },
  {
   "id": "wd-Q28649111",
   "name": "Tanabe-nishi toll gate",
   "lat": 34.809,
   "lng": 135.753861,
   "country_code": "JP",
   "category": "monumento",
   "type": "monumento",
   "wikidata": "Q28649111",
   "image_url": null,
   "unesco": false
  },
  {
   "id": "wd-Q11615576",
   "name": "Hanada toll gate",
   "lat": 34.836528,
   "lng": 134.739583,
   "country_code": "JP",
   "category": "monumento",
   "type": "monumento",
   "wikidata": "Q11615576",
   "image_url": null,
   "unesco": false
  },
  {
   "id": "wd-Q11580527",
   "name": "Shirotori interchange",
   "lat": 35.872619,
   "lng": 136.875906,
   "country_code": "JP",
   "category": "monumento",
   "type": "monumento",
   "wikidata": "Q11580527",
   "image_url": "http://commons.wikimedia.org/wiki/Special:FilePath/Shirotori-IC.02.JPG",
   "unesco": false
  },
  {
   "id": "wd-Q11483225",
   "name": "Hirayu interchange",
   "lat": 36.187117,
   "lng": 137.55255,
   "country_code": "JP",
   "category": "monumento",
   "type": "monumento",
   "wikidata": "Q11483225",
   "image_url": "http://commons.wikimedia.org/wiki/Special:FilePath/Hieayuryoukinsyo.jpg",
   "unesco": false
  },
  {
   "id": "wd-Q11633189",
   "name": "Toyooka toll gate",
   "lat": 34.746222,
   "lng": 136.911944,
   "country_code": "JP",
   "category": "monumento",
   "type": "monumento",
   "wikidata": "Q11633189",
   "image_url": null,
   "unesco": false
  },
  {
   "id": "wd-Q17209698",
   "name": "Fukagawa-nishi toll gate",
   "lat": 43.66925,
   "lng": 142.02475,
   "country_code": "JP",
   "category": "monumento",
   "type": "monumento",
   "wikidata": "Q17209698",
   "image_url": "http://commons.wikimedia.org/wiki/Special:FilePath/Fukagawa-Rumoi%20Expressway%20Fukagawa-nishi%20Toll%20Gate.jpg",
   "unesco": false
  },
  {
   "id": "wd-Q11610506",
   "name": "Narashino toll gate",
   "lat": 35.661358,
   "lng": 140.024861,
   "country_code": "JP",
   "category": "monumento",
   "type": "monumento",
   "wikidata": "Q11610506",
   "image_url": null,
   "unesco": false
  },
  {
   "id": "wd-Q11465812",
   "name": "Yamanoue Stele",
   "lat": 36.277083,
   "lng": 139.027778,
   "country_code": "JP",
   "category": "monumento",
   "type": "monumento",
   "wikidata": "Q11465812",
   "image_url": "http://commons.wikimedia.org/wiki/Special:FilePath/Yamanouehi.jpg",
   "unesco": true
  },
  {
   "id": "wd-Q11526469",
   "name": "Tōdai-ji Daibutsu",
   "lat": 34.68915,
   "lng": 135.8398,
   "country_code": "JP",
   "category": "monumento",
   "type": "monumento",
   "wikidata": "Q11526469",
   "image_url": "http://commons.wikimedia.org/wiki/Special:FilePath/Daibutsu%20Grand%20bouddha%20-%20T%C5%8Ddai-ji%20-%20Nara.jpg",
   "unesco": true
  },
  {
   "id": "wd-Q115163657",
   "name": "Ushigome-mitsuke",
   "lat": 35.699876,
   "lng": 139.743712,
   "country_code": "JP",
   "category": "monumento",
   "type": "monumento",
   "wikidata": "Q115163657",
   "image_url": "http://commons.wikimedia.org/wiki/Special:FilePath/Ushigome-mitsuke%2001.jpg",
   "unesco": false
  },
  {
   "id": "wd-Q30130266",
   "name": "Embassy of the Philippines historical marker",
   "lat": 35.69686,
   "lng": 139.74881,
   "country_code": "JP",
   "category": "monumento",
   "type": "monumento",
   "wikidata": "Q30130266",
   "image_url": "http://commons.wikimedia.org/wiki/Special:FilePath/Embahada%20ng%20Pilipinas%20historical%20marker.jpg",
   "unesco": false
  },
  {
   "id": "wd-Q1186614",
   "name": "Matsue-Tamatsukuri toll gate",
   "lat": 35.433333,
   "lng": 133.025806,
   "country_code": "JP",
   "category": "monumento",
   "type": "monumento",
   "wikidata": "Q1186614",
   "image_url": null,
   "unesco": false
  },
  {
   "id": "wd-Q55535122",
   "name": "Dai Kannon of Kamashi",
   "lat": 39.256611,
   "lng": 141.901028,
   "country_code": "JP",
   "category": "monumento",
   "type": "monumento",
   "wikidata": "Q55535122",
   "image_url": "http://commons.wikimedia.org/wiki/Special:FilePath/Kamaishi%20Kannon%20%E9%87%9C%E7%9F%B3%E5%A4%A7%E8%A6%B3%E9%9F%B3%20Mar%204%2C%202012.jpg",
   "unesco": false
  },
  {
   "id": "wd-Q11507970",
   "name": "Nihon-ji Daibutsu",
   "lat": 35.15773,
   "lng": 139.8348,
   "country_code": "JP",
   "category": "monumento",
   "type": "monumento",
   "wikidata": "Q11507970",
   "image_url": "http://commons.wikimedia.org/wiki/Special:FilePath/Nihonji%20Buddha.JPG",
   "unesco": false
  },
  {
   "id": "wd-Q11285388",
   "name": "Hattori Ryokuchi Open-Air Concert Hall",
   "lat": 34.774528,
   "lng": 135.489111,
   "country_code": "JP",
   "category": "monumento",
   "type": "monumento",
   "wikidata": "Q11285388",
   "image_url": "http://commons.wikimedia.org/wiki/Special:FilePath/151128%20Hattori%20Ryokuchi%20open-air%20concert%20hall%20Osaka%20pref%20Japan01n.jpg",
   "unesco": false
  },
  {
   "id": "wd-Q97009570",
   "name": "Kori junction toll booth",
   "lat": 37.832417,
   "lng": 140.493083,
   "country_code": "JP",
   "category": "monumento",
   "type": "monumento",
   "wikidata": "Q97009570",
   "image_url": null,
   "unesco": false
  },
  {
   "id": "wd-Q137295901",
   "name": "Gate in the Sky",
   "lat": 34.160399,
   "lng": 133.654848,
   "country_code": "JP",
   "category": "monumento",
   "type": "monumento",
   "wikidata": "Q137295901",
   "image_url": "http://commons.wikimedia.org/wiki/Special:FilePath/Takayazinzya%2026.jpg",
   "unesco": false
  },
  {
   "id": "wd-Q11368518",
   "name": "Tango Daibutsu",
   "lat": 35.707778,
   "lng": 135.241667,
   "country_code": "JP",
   "category": "monumento",
   "type": "monumento",
   "wikidata": "Q11368518",
   "image_url": "http://commons.wikimedia.org/wiki/Special:FilePath/%E4%B8%B9%E5%BE%8C%E5%A4%A7%E4%BB%8F%E3%81%A8%E6%A1%9C2.jpg",
   "unesco": false
  },
  {
   "id": "wd-Q48807898",
   "name": "Akamon",
   "lat": 35.71062,
   "lng": 139.76035,
   "country_code": "JP",
   "category": "monumento",
   "type": "monumento",
   "wikidata": "Q48807898",
   "image_url": "http://commons.wikimedia.org/wiki/Special:FilePath/Wongwt%20%E6%9D%B1%E4%BA%AC%E5%A4%A7%E5%AD%B8%20%2817258247376%29.jpg",
   "unesco": true
  },
  {
   "id": "wd-Q132744756",
   "name": "Nishizakiyama Stone Circle",
   "lat": 43.19026,
   "lng": 140.846562,
   "country_code": "JP",
   "category": "monumento",
   "type": "monumento",
   "wikidata": "Q132744756",
   "image_url": "http://commons.wikimedia.org/wiki/Special:FilePath/Nishizakiyama%20Stone%20Circle%20-%20Detail%201.jpg",
   "unesco": false
  },
  {
   "id": "wd-Q7751872",
   "name": "Sitios de la revolución industrial de la era Meiji en Japón: siderurgia",
   "lat": 34.430556,
   "lng": 131.412222,
   "country_code": "JP",
   "category": "monumento",
   "type": "monumento",
   "wikidata": "Q7751872",
   "image_url": "http://commons.wikimedia.org/wiki/Special:FilePath/Hagi%20castle%20Masudas.JPG",
   "unesco": true
  },
  {
   "id": "wd-Q107020514",
   "name": "Inner Gate, Horyu-ji",
   "lat": 34.61396,
   "lng": 135.7343,
   "country_code": "JP",
   "category": "monumento",
   "type": "monumento",
   "wikidata": "Q107020514",
   "image_url": "http://commons.wikimedia.org/wiki/Special:FilePath/Horyu-ji%20National%20Treasure%20World%20heritage%20%E5%9B%BD%E5%AE%9D%E3%83%BB%E4%B8%96%E7%95%8C%E9%81%BA%E7%94%A3%E6%B3%95%E9%9A%86%E5%AF%BA16.JPG",
   "unesco": true
  },
  {
   "id": "wd-Q11417064",
   "name": "Yobuko Daibutsu",
   "lat": 33.548833,
   "lng": 129.897194,
   "country_code": "JP",
   "category": "monumento",
   "type": "monumento",
   "wikidata": "Q11417064",
   "image_url": "http://commons.wikimedia.org/wiki/Special:FilePath/%E5%91%BC%E5%AD%90%E5%A4%A7%E4%BB%8F%20%285028569504%29.jpg",
   "unesco": false
  },
  {
   "id": "wd-Q107020518",
   "name": "Tōdaimon, Horyu-ji",
   "lat": 34.61381,
   "lng": 135.7367,
   "country_code": "JP",
   "category": "monumento",
   "type": "monumento",
   "wikidata": "Q107020518",
   "image_url": "http://commons.wikimedia.org/wiki/Special:FilePath/T%C5%8Ddaimon%20-%20H%C5%8Dry%C5%AB-ji%20-%20Ikaruga%2C%20Nara%2C%20Japan%20-%20DSC07599.jpg",
   "unesco": true
  },
  {
   "id": "wd-Q66823359",
   "name": "Fumei Gate",
   "lat": 35.185744,
   "lng": 136.89946,
   "country_code": "JP",
   "category": "monumento",
   "type": "monumento",
   "wikidata": "Q66823359",
   "image_url": null,
   "unesco": false
  },
  {
   "id": "wd-Q542324",
   "name": "Ushiku Daibutsu",
   "lat": 35.9825,
   "lng": 140.220278,
   "country_code": "JP",
   "category": "monumento",
   "type": "monumento",
   "wikidata": "Q542324",
   "image_url": "http://commons.wikimedia.org/wiki/Special:FilePath/Pic%20kunojyou.jpg",
   "unesco": false
  },
  {
   "id": "wd-Q11374178",
   "name": "Kyoto Daibutsu",
   "lat": 34.991528,
   "lng": 135.772889,
   "country_code": "JP",
   "category": "monumento",
   "type": "monumento",
   "wikidata": "Q11374178",
   "image_url": "http://commons.wikimedia.org/wiki/Special:FilePath/H%C5%8Dk%C5%8Dji%20Daibutsu%20Kaempfer.png",
   "unesco": false
  },
  {
   "id": "wd-Q217689",
   "name": "Saka toll gate",
   "lat": 34.341444,
   "lng": 132.496833,
   "country_code": "JP",
   "category": "monumento",
   "type": "monumento",
   "wikidata": "Q217689",
   "image_url": null,
   "unesco": false
  },
  {
   "id": "wd-Q11437550",
   "name": "Ōyu Stone Circles",
   "lat": 40.271667,
   "lng": 140.803889,
   "country_code": "JP",
   "category": "monumento",
   "type": "monumento",
   "wikidata": "Q11437550",
   "image_url": "http://commons.wikimedia.org/wiki/Special:FilePath/Oyu%20stone%20circles%2020180916a.jpg",
   "unesco": true
  },
  {
   "id": "wd-Q28972604",
   "name": "Matsumoto toll gate",
   "lat": 31.60735,
   "lng": 130.459139,
   "country_code": "JP",
   "category": "monumento",
   "type": "monumento",
   "wikidata": "Q28972604",
   "image_url": "http://commons.wikimedia.org/wiki/Special:FilePath/Minami-Kyushu%20Expressway%20Matsumoto%20IC.JPG",
   "unesco": false
  },
  {
   "id": "wd-Q75835634",
   "name": "Sapporo Toll booth",
   "lat": 43.079194,
   "lng": 141.426556,
   "country_code": "JP",
   "category": "monumento",
   "type": "monumento",
   "wikidata": "Q75835634",
   "image_url": "http://commons.wikimedia.org/wiki/Special:FilePath/SapporoJCT.JPG",
   "unesco": false
  },
  {
   "id": "wd-Q48733884",
   "name": "Ōmori Katsuyama Site",
   "lat": 40.698889,
   "lng": 140.358333,
   "country_code": "JP",
   "category": "monumento",
   "type": "monumento",
   "wikidata": "Q48733884",
   "image_url": "http://commons.wikimedia.org/wiki/Special:FilePath/Omori-Katsuyama%20Stone%20Circle.jpg",
   "unesco": true
  },
  {
   "id": "wd-Q11611173",
   "name": "Shūrakuen Daibutsu",
   "lat": 35.043903,
   "lng": 136.904464,
   "country_code": "JP",
   "category": "monumento",
   "type": "monumento",
   "wikidata": "Q11611173",
   "image_url": "http://commons.wikimedia.org/wiki/Special:FilePath/Shurakuen%20Daibutsu%202025-12%20ac%20%282%29.jpg",
   "unesco": false
  },
  {
   "id": "wd-Q10926836",
   "name": "Kokufu Daibutsu",
   "lat": 36.218944,
   "lng": 137.214111,
   "country_code": "JP",
   "category": "monumento",
   "type": "monumento",
   "wikidata": "Q10926836",
   "image_url": null,
   "unesco": false
  },
  {
   "id": "wd-Q11553674",
   "name": "Kawaguchiko Stellar Theater",
   "lat": 35.480278,
   "lng": 138.759722,
   "country_code": "JP",
   "category": "monumento",
   "type": "monumento",
   "wikidata": "Q11553674",
   "image_url": "http://commons.wikimedia.org/wiki/Special:FilePath/%E3%82%B9%E3%83%86%E3%83%A9%E3%82%B7%E3%82%A2%E3%82%BF%E3%83%BC%E5%86%85%E9%83%A8%E5%B1%8B%E6%A0%B9%E9%96%8B%E6%94%BE%E6%99%82.jpg",
   "unesco": false
  },
  {
   "id": "wd-Q11676211",
   "name": "Washi-no-mon",
   "lat": 34.0719,
   "lng": 134.556554,
   "country_code": "JP",
   "category": "monumento",
   "type": "monumento",
   "wikidata": "Q11676211",
   "image_url": "http://commons.wikimedia.org/wiki/Special:FilePath/Tokushima%20castle01s3872.jpg",
   "unesco": false
  },
  {
   "id": "wd-Q1654784",
   "name": "Kagoshima toll gate",
   "lat": 31.658933,
   "lng": 130.552806,
   "country_code": "JP",
   "category": "monumento",
   "type": "monumento",
   "wikidata": "Q1654784",
   "image_url": "http://commons.wikimedia.org/wiki/Special:FilePath/Kagoshima%20TB.JPG",
   "unesco": false
  },
  {
   "id": "wd-Q133840481",
   "name": "Tomb of Honda Tadakatsu",
   "lat": 35.280679,
   "lng": 140.246387,
   "country_code": "JP",
   "category": "monumento",
   "type": "monumento",
   "wikidata": "Q133840481",
   "image_url": "http://commons.wikimedia.org/wiki/Special:FilePath/Tomb%20of%20Honda%20Tadakatsu%20%28Otaki%2C%20Chiba%29%2001.jpg",
   "unesco": false
  },
  {
   "id": "wd-Q28685847",
   "name": "Tayasu Gate",
   "lat": 35.694039,
   "lng": 139.749322,
   "country_code": "JP",
   "category": "monumento",
   "type": "monumento",
   "wikidata": "Q28685847",
   "image_url": "http://commons.wikimedia.org/wiki/Special:FilePath/Tayasu-mon1.jpg",
   "unesco": true
  },
  {
   "id": "wd-Q5369428",
   "name": "Sakurada-mon",
   "lat": 35.678556,
   "lng": 139.753944,
   "country_code": "JP",
   "category": "monumento",
   "type": "monumento",
   "wikidata": "Q5369428",
   "image_url": "http://commons.wikimedia.org/wiki/Special:FilePath/Sakuradamon01s3200.jpg",
   "unesco": true
  },
  {
   "id": "wd-Q3113528",
   "name": "Gifu Great Buddha",
   "lat": 35.432416,
   "lng": 136.771903,
   "country_code": "JP",
   "category": "monumento",
   "type": "monumento",
   "wikidata": "Q3113528",
   "image_url": "http://commons.wikimedia.org/wiki/Special:FilePath/Gifugreatbuddha.jpg",
   "unesco": false
  },
  {
   "id": "wd-Q43302084",
   "name": "Shino toll booth",
   "lat": 34.990111,
   "lng": 135.606694,
   "country_code": "JP",
   "category": "monumento",
   "type": "monumento",
   "wikidata": "Q43302084",
   "image_url": null,
   "unesco": false
  },
  {
   "id": "wd-Q11509589",
   "name": "Hibiya Open-Air Concert Hall",
   "lat": 35.672361,
   "lng": 139.754028,
   "country_code": "JP",
   "category": "monumento",
   "type": "monumento",
   "wikidata": "Q11509589",
   "image_url": "http://commons.wikimedia.org/wiki/Special:FilePath/Hibiya%20Open-Air%20Concert%20Hall.JPG",
   "unesco": false
  },
  {
   "id": "wd-Q30231368",
   "name": "Tsuruma Park odeum",
   "lat": 35.155389,
   "lng": 136.920528,
   "country_code": "JP",
   "category": "monumento",
   "type": "monumento",
   "wikidata": "Q30231368",
   "image_url": "http://commons.wikimedia.org/wiki/Special:FilePath/Tsuruma%20Park%20odeum%20ac%20%283%29.jpg",
   "unesco": false
  },
  {
   "id": "wd-Q11664291",
   "name": "Otoe Stone Circle",
   "lat": 43.674028,
   "lng": 142.033639,
   "country_code": "JP",
   "category": "monumento",
   "type": "monumento",
   "wikidata": "Q11664291",
   "image_url": null,
   "unesco": true
  },
  {
   "id": "wd-Q28837859",
   "name": "Hinagu toll gate",
   "lat": 32.441111,
   "lng": 130.576222,
   "country_code": "JP",
   "category": "monumento",
   "type": "monumento",
   "wikidata": "Q28837859",
   "image_url": "http://commons.wikimedia.org/wiki/Special:FilePath/Hinagu%20Toll%20Gate%202017.JPG",
   "unesco": false
  },
  {
   "id": "wd-Q115345646",
   "name": "Haneda no Ōtorii",
   "lat": 35.54663,
   "lng": 139.75244,
   "country_code": "JP",
   "category": "monumento",
   "type": "monumento",
   "wikidata": "Q115345646",
   "image_url": "http://commons.wikimedia.org/wiki/Special:FilePath/Haneda%20no%20%C5%8Ctorii%2002.jpg",
   "unesco": false
  },
  {
   "id": "wd-Q11394839",
   "name": "Enku's Burial Mound",
   "lat": 35.504472,
   "lng": 136.891667,
   "country_code": "JP",
   "category": "monumento",
   "type": "monumento",
   "wikidata": "Q11394839",
   "image_url": "http://commons.wikimedia.org/wiki/Special:FilePath/Enku%27s%20Burial%20Mound%2001.JPG",
   "unesco": true
  },
  {
   "id": "wd-Q28685861",
   "name": "Shimizu Gate",
   "lat": 35.692753,
   "lng": 139.752756,
   "country_code": "JP",
   "category": "monumento",
   "type": "monumento",
   "wikidata": "Q28685861",
   "image_url": "http://commons.wikimedia.org/wiki/Special:FilePath/Shimizu-mon1.jpg",
   "unesco": true
  },
  {
   "id": "wd-Q20042067",
   "name": "Nirayama Reverberatory Furnaces",
   "lat": 35.039361,
   "lng": 138.962028,
   "country_code": "JP",
   "category": "monumento",
   "type": "monumento",
   "wikidata": "Q20042067",
   "image_url": "http://commons.wikimedia.org/wiki/Special:FilePath/Reverberatory%20furnace%20of%20Nirayama.jpg",
   "unesco": true
  },
  {
   "id": "wd-Q217703",
   "name": "Tenno toll gate",
   "lat": 34.291028,
   "lng": 132.516472,
   "country_code": "JP",
   "category": "monumento",
   "type": "monumento",
   "wikidata": "Q217703",
   "image_url": null,
   "unesco": false
  },
  {
   "id": "wd-Q22119386",
   "name": "Chitose Gomon",
   "lat": 36.693331,
   "lng": 137.21238,
   "country_code": "JP",
   "category": "monumento",
   "type": "monumento",
   "wikidata": "Q22119386",
   "image_url": "http://commons.wikimedia.org/wiki/Special:FilePath/Chitose%20Gomon%2C%20Toyama.JPG",
   "unesco": false
  },
  {
   "id": "wd-Q43370989",
   "name": "Mukaishima toll booth",
   "lat": 34.379361,
   "lng": 133.192722,
   "country_code": "JP",
   "category": "monumento",
   "type": "monumento",
   "wikidata": "Q43370989",
   "image_url": null,
   "unesco": false
  },
  {
   "id": "wd-Q12366269",
   "name": "Great Buddha of Kamakura",
   "lat": 35.31685,
   "lng": 139.5357,
   "country_code": "JP",
   "category": "monumento",
   "type": "monumento",
   "wikidata": "Q12366269",
   "image_url": "http://commons.wikimedia.org/wiki/Special:FilePath/Kamakura%20Budda%20Daibutsu%20front%201885.jpg",
   "unesco": true
  },
  {
   "id": "wd-Q80528591",
   "name": "Ishibashi Kuyō-tō (Kishi, Musashimurayama)",
   "lat": 35.764949,
   "lng": 139.368419,
   "country_code": "JP",
   "category": "monumento",
   "type": "monumento",
   "wikidata": "Q80528591",
   "image_url": null,
   "unesco": false
  },
  {
   "id": "wd-Q11440137",
   "name": "Osaka Castle Band Shell",
   "lat": 34.682694,
   "lng": 135.530611,
   "country_code": "JP",
   "category": "monumento",
   "type": "monumento",
   "wikidata": "Q11440137",
   "image_url": "http://commons.wikimedia.org/wiki/Special:FilePath/Osakajo%20Open%20Air%20Music%20Hall.jpg",
   "unesco": false
  },
  {
   "id": "wd-Q127378385",
   "name": "Sado Island Gold Mines",
   "lat": 38.040833,
   "lng": 138.257778,
   "country_code": "JP",
   "category": "monumento",
   "type": "monumento",
   "wikidata": "Q127378385",
   "image_url": "http://commons.wikimedia.org/wiki/Special:FilePath/Dohyu%20no%20Warito%20ac%20%283%29.jpg",
   "unesco": true
  },
  {
   "id": "wd-Q28835021",
   "name": "Sasebo-Mikawachi toll gate",
   "lat": 33.169694,
   "lng": 129.848417,
   "country_code": "JP",
   "category": "monumento",
   "type": "monumento",
   "wikidata": "Q28835021",
   "image_url": null,
   "unesco": false
  },
  {
   "id": "wd-Q17230538",
   "name": "Motoki Stone Torii",
   "lat": 38.228694,
   "lng": 140.328944,
   "country_code": "JP",
   "category": "monumento",
   "type": "monumento",
   "wikidata": "Q17230538",
   "image_url": "http://commons.wikimedia.org/wiki/Special:FilePath/Motoki%20Ishi-Torii%2C%20Yamagata.JPG",
   "unesco": true
  },
  {
   "id": "wd-Q11653274",
   "name": "Nagahama Biwako Daibutsu",
   "lat": 35.36775,
   "lng": 136.273833,
   "country_code": "JP",
   "category": "monumento",
   "type": "monumento",
   "wikidata": "Q11653274",
   "image_url": null,
   "unesco": false
  },
  {
   "id": "wd-Q107020575",
   "name": "Lotus Flower Gate, Toji",
   "lat": 34.98065,
   "lng": 135.7463,
   "country_code": "JP",
   "category": "monumento",
   "type": "monumento",
   "wikidata": "Q107020575",
   "image_url": "http://commons.wikimedia.org/wiki/Special:FilePath/To-ji%20National%20Treasure%20World%20heritage%20Kyoto%20%E5%9B%BD%E5%AE%9D%E3%83%BB%E4%B8%96%E7%95%8C%E9%81%BA%E7%94%A3%20%E6%9D%B1%E5%AF%BA%20%E4%BA%AC%E9%83%BD008.JPG",
   "unesco": true
  },
  {
   "id": "wd-Q11383075",
   "name": "Sakichi Great Buddha",
   "lat": 35.321194,
   "lng": 136.701306,
   "country_code": "JP",
   "category": "monumento",
   "type": "monumento",
   "wikidata": "Q11383075",
   "image_url": "http://commons.wikimedia.org/wiki/Special:FilePath/Daibutsu-ji%20Temple%2020211229%2008.jpg",
   "unesco": false
  },
  {
   "id": "wd-Q1092854",
   "name": "Hamada toll gate",
   "lat": 34.909111,
   "lng": 132.113806,
   "country_code": "JP",
   "category": "monumento",
   "type": "monumento",
   "wikidata": "Q1092854",
   "image_url": "http://commons.wikimedia.org/wiki/Special:FilePath/Hamada-tb.JPG",
   "unesco": false
  },
  {
   "id": "wd-Q11591277",
   "name": "Fukui Daibutsu",
   "lat": 36.067806,
   "lng": 136.21175,
   "country_code": "JP",
   "category": "monumento",
   "type": "monumento",
   "wikidata": "Q11591277",
   "image_url": "http://commons.wikimedia.org/wiki/Special:FilePath/%E7%A6%8F%E4%BA%95%E5%A4%A7%E4%BB%8F%E8%A6%B3%E9%9F%B3%20-%20panoramio%20-%20kcomiida.jpg",
   "unesco": false
  },
  {
   "id": "wd-Q28967061",
   "name": "Iwade-Negoro　toll gate",
   "lat": 34.287806,
   "lng": 135.303583,
   "country_code": "JP",
   "category": "monumento",
   "type": "monumento",
   "wikidata": "Q28967061",
   "image_url": null,
   "unesco": false
  },
  {
   "id": "wd-Q7385349",
   "name": "Ryōzen Kannon",
   "lat": 34.999943,
   "lng": 135.781861,
   "country_code": "JP",
   "category": "monumento",
   "type": "monumento",
   "wikidata": "Q7385349",
   "image_url": "http://commons.wikimedia.org/wiki/Special:FilePath/RyozenKannon.jpg",
   "unesco": false
  },
  {
   "id": "wd-Q11419318",
   "name": "Kuichigai-mon",
   "lat": 35.681278,
   "lng": 139.73225,
   "country_code": "JP",
   "category": "monumento",
   "type": "monumento",
   "wikidata": "Q11419318",
   "image_url": "http://commons.wikimedia.org/wiki/Special:FilePath/Kuichigai-Mitsuke%202017-06-04.jpg",
   "unesco": false
  },
  {
   "id": "wd-Q7497865",
   "name": "Shiodome Freight Terminal",
   "lat": 35.665833,
   "lng": 139.761389,
   "country_code": "JP",
   "category": "monumento",
   "type": "monumento",
   "wikidata": "Q7497865",
   "image_url": "http://commons.wikimedia.org/wiki/Special:FilePath/Shimbashi%20Station%201899.jpg",
   "unesco": true
  },
  {
   "id": "wd-Q107020519",
   "name": "Nandaimon, Horyu-ji",
   "lat": 34.61268,
   "lng": 135.7345,
   "country_code": "JP",
   "category": "monumento",
   "type": "monumento",
   "wikidata": "Q107020519",
   "image_url": "http://commons.wikimedia.org/wiki/Special:FilePath/Horyu-ji%20National%20Treasure%20World%20heritage%20%E5%9B%BD%E5%AE%9D%E3%83%BB%E4%B8%96%E7%95%8C%E9%81%BA%E7%94%A3%E6%B3%95%E9%9A%86%E5%AF%BA03.JPG",
   "unesco": true
  },
  {
   "id": "wd-Q7769551",
   "name": "The Tomioka Silk Mill and Related Industrial Heritage",
   "lat": 36.2553,
   "lng": 138.888,
   "country_code": "JP",
   "category": "monumento",
   "type": "monumento",
   "wikidata": "Q7769551",
   "image_url": "http://commons.wikimedia.org/wiki/Special:FilePath/%E5%AF%8C%E5%B2%A1%E8%A3%BD%E7%B3%B8%E5%A0%B4%E3%83%BB%E7%B9%B0%E7%B3%B8%E5%A0%B4.jpg",
   "unesco": true
  },
  {
   "id": "wd-Q79945262",
   "name": "Embassy of the Philippines historical marker",
   "lat": 35.69709,
   "lng": 139.74893,
   "country_code": "JP",
   "category": "monumento",
   "type": "monumento",
   "wikidata": "Q79945262",
   "image_url": "http://commons.wikimedia.org/wiki/Special:FilePath/Embassy%20of%20the%20Philippines%20Tokyo%20PHC%20historical%20marker.jpg",
   "unesco": false
  },
  {
   "id": "wd-Q135409570",
   "name": "Mount Sanpōgamori",
   "lat": 33.784861,
   "lng": 132.952139,
   "country_code": "JP",
   "category": "monumento",
   "type": "monumento",
   "wikidata": "Q135409570",
   "image_url": null,
   "unesco": false
  },
  {
   "id": "wd-Q66823354",
   "name": "Honmaru First South Gate",
   "lat": 35.184453,
   "lng": 136.90027,
   "country_code": "JP",
   "category": "monumento",
   "type": "monumento",
   "wikidata": "Q66823354",
   "image_url": null,
   "unesco": false
  },
  {
   "id": "wd-Q106678441",
   "name": "Otorii (Nagoya)",
   "lat": 35.16857,
   "lng": 136.85487,
   "country_code": "JP",
   "category": "monumento",
   "type": "monumento",
   "wikidata": "Q106678441",
   "image_url": "http://commons.wikimedia.org/wiki/Special:FilePath/Nakamura-gate%20%2813402098633%29.jpg",
   "unesco": false
  },
  {
   "id": "wd-Q43302061",
   "name": "Yagi toll booth",
   "lat": 35.088167,
   "lng": 135.503556,
   "country_code": "JP",
   "category": "monumento",
   "type": "monumento",
   "wikidata": "Q43302061",
   "image_url": null,
   "unesco": false
  },
  {
   "id": "wd-Q11463796",
   "name": "Shōdoshima Daikannon Temple",
   "lat": 34.511903,
   "lng": 134.213147,
   "country_code": "JP",
   "category": "monumento",
   "type": "monumento",
   "wikidata": "Q11463796",
   "image_url": "http://commons.wikimedia.org/wiki/Special:FilePath/Shodoshima%20Daikannon%20%286453337505%29.jpg",
   "unesco": false
  },
  {
   "id": "wd-Q11541408",
   "name": "Tatetsuki Site",
   "lat": 34.663056,
   "lng": 133.825486,
   "country_code": "JP",
   "category": "monumento",
   "type": "monumento",
   "wikidata": "Q11541408",
   "image_url": null,
   "unesco": true
  },
  {
   "id": "wd-Q11636414",
   "name": "Echizen Daibutsu",
   "lat": 36.053639,
   "lng": 136.51925,
   "country_code": "JP",
   "category": "monumento",
   "type": "monumento",
   "wikidata": "Q11636414",
   "image_url": null,
   "unesco": false
  },
  {
   "id": "wd-Q2797958",
   "name": "Mina de cobre de Ashio",
   "lat": 36.633333,
   "lng": 139.439722,
   "country_code": "JP",
   "category": "monumento",
   "type": "monumento",
   "wikidata": "Q2797958",
   "image_url": "http://commons.wikimedia.org/wiki/Special:FilePath/Kodakikou.jpg",
   "unesco": true
  },
  {
   "id": "wd-Q11490797",
   "name": "Oshoro Stone Circle",
   "lat": 43.199611,
   "lng": 140.874861,
   "country_code": "JP",
   "category": "monumento",
   "type": "monumento",
   "wikidata": "Q11490797",
   "image_url": "http://commons.wikimedia.org/wiki/Special:FilePath/Oshoro%20Stone%20Circle.jpg",
   "unesco": true
  },
  {
   "id": "wd-Q11462859",
   "name": "Komakino Site",
   "lat": 40.7375,
   "lng": 140.728167,
   "country_code": "JP",
   "category": "monumento",
   "type": "monumento",
   "wikidata": "Q11462859",
   "image_url": "http://commons.wikimedia.org/wiki/Special:FilePath/%E5%B0%8F%E7%89%A7%E9%87%8E%E9%81%BA%E8%B7%A11.jpg",
   "unesco": true
  },
  {
   "id": "wd-Q11378977",
   "name": "Isedōtai Site",
   "lat": 40.201111,
   "lng": 140.348056,
   "country_code": "JP",
   "category": "monumento",
   "type": "monumento",
   "wikidata": "Q11378977",
   "image_url": "http://commons.wikimedia.org/wiki/Special:FilePath/Isedotai%20Site%202021b.jpg",
   "unesco": true
  },
  {
   "id": "wd-Q107020495",
   "name": "Tōdai-ji Tegaimon",
   "lat": 34.69161,
   "lng": 135.8351,
   "country_code": "JP",
   "category": "monumento",
   "type": "monumento",
   "wikidata": "Q107020495",
   "image_url": "http://commons.wikimedia.org/wiki/Special:FilePath/Tengaimon%20Gate.jpg",
   "unesco": true
  },
  {
   "id": "wd-Q55532873",
   "name": "Kitahanebashi Gate",
   "lat": 35.688873,
   "lng": 139.754029,
   "country_code": "JP",
   "category": "monumento",
   "type": "monumento",
   "wikidata": "Q55532873",
   "image_url": "http://commons.wikimedia.org/wiki/Special:FilePath/IMG%20E1546%20kitahane.jpg",
   "unesco": false
  },
  {
   "id": "wd-Q132745289",
   "name": "Yubunezawa Stone Circle",
   "lat": 39.781165,
   "lng": 141.097526,
   "country_code": "JP",
   "category": "monumento",
   "type": "monumento",
   "wikidata": "Q132745289",
   "image_url": "http://commons.wikimedia.org/wiki/Special:FilePath/%E6%B9%AF%E8%88%9F%E6%B2%A2%E7%92%B0%E7%8A%B6%E5%88%97%E7%9F%B3%E5%85%A8%E6%99%AF.jpg",
   "unesco": true
  },
  {
   "id": "wd-Q111630799",
   "name": "Kurokami Buried Shrine Gate",
   "lat": 31.584619,
   "lng": 130.7054,
   "country_code": "JP",
   "category": "monumento",
   "type": "monumento",
   "wikidata": "Q111630799",
   "image_url": "http://commons.wikimedia.org/wiki/Special:FilePath/Buried%20torii%20near%20Kurokami-Cho%2C%20Kagoshima.JPG",
   "unesco": true
  },
  {
   "id": "wd-Q131447436",
   "name": "Saji House Gate",
   "lat": 35.61006,
   "lng": 139.561204,
   "country_code": "JP",
   "category": "monumento",
   "type": "monumento",
   "wikidata": "Q131447436",
   "image_url": null,
   "unesco": false
  },
  {
   "id": "wd-Q42731938",
   "name": "Shoo toll booth",
   "lat": 35.029528,
   "lng": 134.137778,
   "country_code": "JP",
   "category": "monumento",
   "type": "monumento",
   "wikidata": "Q42731938",
   "image_url": null,
   "unesco": false
  },
  {
   "id": "wd-Q60853896",
   "name": "Aizu Jibo Dai-Kannon",
   "lat": 37.551,
   "lng": 139.951,
   "country_code": "JP",
   "category": "monumento",
   "type": "monumento",
   "wikidata": "Q60853896",
   "image_url": "http://commons.wikimedia.org/wiki/Special:FilePath/Aizu%20Kannon%20and%20Three-storied%20Pagoda%2815624662648%29.jpg",
   "unesco": false
  },
  {
   "id": "wd-Q3113530",
   "name": "Kamagaya Great Buddha",
   "lat": 35.758985,
   "lng": 140.013271,
   "country_code": "JP",
   "category": "monumento",
   "type": "monumento",
   "wikidata": "Q3113530",
   "image_url": "http://commons.wikimedia.org/wiki/Special:FilePath/Kamagaya-daibutsu.jpg",
   "unesco": false
  },
  {
   "id": "wd-Q11567536",
   "name": "Muryōkō-ji no Obotoke",
   "lat": 34.220056,
   "lng": 135.174333,
   "country_code": "JP",
   "category": "monumento",
   "type": "monumento",
   "wikidata": "Q11567536",
   "image_url": "http://commons.wikimedia.org/wiki/Special:FilePath/Muryokoji%20Wakayama03n4272.jpg",
   "unesco": false
  },
  {
   "id": "wd-Q108037463",
   "name": "Xujiaba",
   "lat": 32.583252,
   "lng": 120.490256,
   "country_code": "JP",
   "category": "monumento",
   "type": "monumento",
   "wikidata": "Q108037463",
   "image_url": null,
   "unesco": false
  },
  {
   "id": "wd-Q11625580",
   "name": "Hamaguri-gomon Gate",
   "lat": 35.023122,
   "lng": 135.759575,
   "country_code": "JP",
   "category": "monumento",
   "type": "monumento",
   "wikidata": "Q11625580",
   "image_url": "http://commons.wikimedia.org/wiki/Special:FilePath/Kyoto-gyoen%20Hamaguri-gomon.JPG",
   "unesco": false
  },
  {
   "id": "wd-Q55522587",
   "name": "Rokuya Great Buddha",
   "lat": 35.747,
   "lng": 139.262833,
   "country_code": "JP",
   "category": "monumento",
   "type": "monumento",
   "wikidata": "Q55522587",
   "image_url": null,
   "unesco": false
  },
  {
   "id": "wd-Q42847772",
   "name": "Yonezawa-kita toll booth",
   "lat": 37.959556,
   "lng": 140.118611,
   "country_code": "JP",
   "category": "monumento",
   "type": "monumento",
   "wikidata": "Q42847772",
   "image_url": "http://commons.wikimedia.org/wiki/Special:FilePath/Yonezawa-Kita%20Toll%20Gate1.jpg",
   "unesco": false
  },
  {
   "id": "wd-Q11544148",
   "name": "Hashino iron mining and smelting site",
   "lat": 39.343861,
   "lng": 141.682417,
   "country_code": "JP",
   "category": "monumento",
   "type": "monumento",
   "wikidata": "Q11544148",
   "image_url": "http://commons.wikimedia.org/wiki/Special:FilePath/Hashino-sanbankouroato.jpg",
   "unesco": true
  },
  {
   "id": "wd-Q11480863",
   "name": "Hotei Daibutsu",
   "lat": 35.3245,
   "lng": 136.872472,
   "country_code": "JP",
   "category": "monumento",
   "type": "monumento",
   "wikidata": "Q11480863",
   "image_url": "http://commons.wikimedia.org/wiki/Special:FilePath/Ontake%20Yakushi-son%2020210324%2001.jpg",
   "unesco": false
  },
  {
   "id": "wd-Q707668",
   "name": "Mimizuka",
   "lat": 34.991464,
   "lng": 135.77033,
   "country_code": "JP",
   "category": "monumento",
   "type": "monumento",
   "wikidata": "Q707668",
   "image_url": "http://commons.wikimedia.org/wiki/Special:FilePath/Mimizuka2.jpg",
   "unesco": true
  },
  {
   "id": "wd-Q124301022",
   "name": "Eiyō-hi",
   "lat": 35.705139,
   "lng": 139.750361,
   "country_code": "JP",
   "category": "monumento",
   "type": "monumento",
   "wikidata": "Q124301022",
   "image_url": "http://commons.wikimedia.org/wiki/Special:FilePath/Eiyo-hi%20memorial%20to%20falcon%20-%20Koishikawa%20Korakuen%20-%20DSC09216.JPG",
   "unesco": false
  },
  {
   "id": "wd-Q56042093",
   "name": "Yoshino-chō Brick Warehouse",
   "lat": 40.598222,
   "lng": 140.472806,
   "country_code": "JP",
   "category": "monumento",
   "type": "monumento",
   "wikidata": "Q56042093",
   "image_url": "http://commons.wikimedia.org/wiki/Special:FilePath/%E5%90%89%E9%87%8E%E7%94%BA%E7%85%89%E7%93%A6%E5%80%89%E5%BA%AB%E5%A4%96%E8%A6%B3%E5%86%99%E7%9C%9F01.jpg",
   "unesco": false
  },
  {
   "id": "wd-Q18457837",
   "name": "Ōtorii (Kyōto)",
   "lat": 35.012563,
   "lng": 135.782692,
   "country_code": "JP",
   "category": "monumento",
   "type": "monumento",
   "wikidata": "Q18457837",
   "image_url": "http://commons.wikimedia.org/wiki/Special:FilePath/Heianjingu%20tori.JPG",
   "unesco": true
  },
  {
   "id": "wd-Q43214067",
   "name": "Izumisano toll booth",
   "lat": 34.368583,
   "lng": 135.334583,
   "country_code": "JP",
   "category": "monumento",
   "type": "monumento",
   "wikidata": "Q43214067",
   "image_url": null,
   "unesco": false
  },
  {
   "id": "wd-Q28854625",
   "name": "Fukuoka toll gate",
   "lat": 36.707694,
   "lng": 136.949581,
   "country_code": "JP",
   "category": "monumento",
   "type": "monumento",
   "wikidata": "Q28854625",
   "image_url": "http://commons.wikimedia.org/wiki/Special:FilePath/Fukuoka%20Honsen%20TG.JPG",
   "unesco": false
  },
  {
   "id": "wd-Q137646224",
   "name": "Grave of Tsukahara Bokuden",
   "lat": 35.99028,
   "lng": 140.608107,
   "country_code": "JP",
   "category": "monumento",
   "type": "monumento",
   "wikidata": "Q137646224",
   "image_url": "http://commons.wikimedia.org/wiki/Special:FilePath/Grave%20of%20Tsukahara%20Bokuden%2008.jpg",
   "unesco": false
  },
  {
   "id": "wd-Q17990182",
   "name": "Kamaishi Stone Circle",
   "lat": 39.921917,
   "lng": 140.978833,
   "country_code": "JP",
   "category": "monumento",
   "type": "monumento",
   "wikidata": "Q17990182",
   "image_url": "http://commons.wikimedia.org/wiki/Special:FilePath/Kamaisi%20kanj%C3%B4%20resseki.jpg",
   "unesco": false
  },
  {
   "id": "wd-Q11599243",
   "name": "Chikurinji Kofun",
   "lat": 34.672444,
   "lng": 135.702361,
   "country_code": "JP",
   "category": "monumento",
   "type": "monumento",
   "wikidata": "Q11599243",
   "image_url": null,
   "unesco": false
  },
  {
   "id": "wd-Q11603503",
   "name": "Tsukiyama Kofun",
   "lat": 34.523375,
   "lng": 135.731647,
   "country_code": "JP",
   "category": "monumento",
   "type": "monumento",
   "wikidata": "Q11603503",
   "image_url": null,
   "unesco": false
  },
  {
   "id": "wd-Q11621143",
   "name": "Ashimayama-kofun",
   "lat": 36.288761,
   "lng": 139.998653,
   "country_code": "JP",
   "category": "monumento",
   "type": "monumento",
   "wikidata": "Q11621143",
   "image_url": null,
   "unesco": false
  },
  {
   "id": "wd-Q11608503",
   "name": "Makimuku Yazuka Kofun",
   "lat": 34.548889,
   "lng": 135.833833,
   "country_code": "JP",
   "category": "monumento",
   "type": "monumento",
   "wikidata": "Q11608503",
   "image_url": "http://commons.wikimedia.org/wiki/Special:FilePath/Yaduka%2Cmakimuku.JPG",
   "unesco": false
  },
  {
   "id": "wd-Q11624242",
   "name": "Fujimoto Kannonyama Kofun",
   "lat": 36.300778,
   "lng": 139.43675,
   "country_code": "JP",
   "category": "monumento",
   "type": "monumento",
   "wikidata": "Q11624242",
   "image_url": "http://commons.wikimedia.org/wiki/Special:FilePath/Fujimotokannonyamakofun.jpg",
   "unesco": true
  },
  {
   "id": "wd-Q11603501",
   "name": "Tsukiyama Kofun",
   "lat": 33.238778,
   "lng": 131.801722,
   "country_code": "JP",
   "category": "monumento",
   "type": "monumento",
   "wikidata": "Q11603501",
   "image_url": null,
   "unesco": true
  },
  {
   "id": "wd-Q11627818",
   "name": "Nishiyama Kofun",
   "lat": 34.5925,
   "lng": 135.843333,
   "country_code": "JP",
   "category": "monumento",
   "type": "monumento",
   "wikidata": "Q11627818",
   "image_url": "http://commons.wikimedia.org/wiki/Special:FilePath/Nishiyama%20Kofun%2C%20zenkei-1.jpg",
   "unesco": false
  },
  {
   "id": "wd-Q11639744",
   "name": "Tsukuriyama Kofun Cluster",
   "lat": 35.429694,
   "lng": 133.199778,
   "country_code": "JP",
   "category": "monumento",
   "type": "monumento",
   "wikidata": "Q11639744",
   "image_url": null,
   "unesco": false
  },
  {
   "id": "wd-Q11606412",
   "name": "Kyozuka Kofun",
   "lat": 35.638944,
   "lng": 138.677472,
   "country_code": "JP",
   "category": "monumento",
   "type": "monumento",
   "wikidata": "Q11606412",
   "image_url": null,
   "unesco": false
  },
  {
   "id": "wd-Q11638291",
   "name": "Takaosan Kofun",
   "lat": 35.122981,
   "lng": 138.861172,
   "country_code": "JP",
   "category": "monumento",
   "type": "monumento",
   "wikidata": "Q11638291",
   "image_url": "http://commons.wikimedia.org/wiki/Special:FilePath/Takaosan-kofun%20%28Numazu%29%20zenkei.JPG",
   "unesco": false
  },
  {
   "id": "wd-Q11608894",
   "name": "Misono Kofun",
   "lat": 34.639889,
   "lng": 135.593472,
   "country_code": "JP",
   "category": "monumento",
   "type": "monumento",
   "wikidata": "Q11608894",
   "image_url": null,
   "unesco": false
  },
  {
   "id": "wd-Q11613757",
   "name": "Funatsukayama Kofun",
   "lat": 36.167844,
   "lng": 140.289722,
   "country_code": "JP",
   "category": "monumento",
   "type": "monumento",
   "wikidata": "Q11613757",
   "image_url": "http://commons.wikimedia.org/wiki/Special:FilePath/Funatsukayama-kofun%20kouenbu.JPG",
   "unesco": true
  },
  {
   "id": "wd-Q11628944",
   "name": "Nishitonozuka Kofun",
   "lat": 34.568817,
   "lng": 135.851161,
   "country_code": "JP",
   "category": "monumento",
   "type": "monumento",
   "wikidata": "Q11628944",
   "image_url": "http://commons.wikimedia.org/wiki/Special:FilePath/Nishitonotsuka%20Kofun%2C%20zenkei.jpg",
   "unesco": false
  },
  {
   "id": "wd-Q11613253",
   "name": "Usuzuka Kofun",
   "lat": 33.143222,
   "lng": 131.785917,
   "country_code": "JP",
   "category": "monumento",
   "type": "monumento",
   "wikidata": "Q11613253",
   "image_url": null,
   "unesco": false
  },
  {
   "id": "wd-Q11630681",
   "name": "Sumoutoriyama Kofun",
   "lat": 34.659161,
   "lng": 133.773033,
   "country_code": "JP",
   "category": "monumento",
   "type": "monumento",
   "wikidata": "Q11630681",
   "image_url": null,
   "unesco": false
  },
  {
   "id": "wd-Q11631432",
   "name": "Konda Gobyōyama Kofun",
   "lat": 34.5626,
   "lng": 135.609211,
   "country_code": "JP",
   "category": "monumento",
   "type": "monumento",
   "wikidata": "Q11631432",
   "image_url": "http://commons.wikimedia.org/wiki/Special:FilePath/Konda%20Gobyoyama%20Kofun%2C%20haisho-2.jpg",
   "unesco": true
  },
  {
   "id": "wd-Q11642761",
   "name": "Naka Hachiman Kofun",
   "lat": 33.570833,
   "lng": 130.435833,
   "country_code": "JP",
   "category": "monumento",
   "type": "monumento",
   "wikidata": "Q11642761",
   "image_url": "http://commons.wikimedia.org/wiki/Special:FilePath/Nakahachiman%20Ancient%20Tomb.jpg",
   "unesco": false
  },
  {
   "id": "wd-Q11637613",
   "name": "Karusato Ōtsuka Kofun",
   "lat": 34.5511,
   "lng": 135.6044,
   "country_code": "JP",
   "category": "monumento",
   "type": "monumento",
   "wikidata": "Q11637613",
   "image_url": "http://commons.wikimedia.org/wiki/Special:FilePath/Karusato%20Otsuka%20Kofun%2C%20funkyu.jpg",
   "unesco": true
  },
  {
   "id": "wd-Q11645001",
   "name": "Nonaka Kofun",
   "lat": 34.56025,
   "lng": 135.602583,
   "country_code": "JP",
   "category": "monumento",
   "type": "monumento",
   "wikidata": "Q11645001",
   "image_url": null,
   "unesco": true
  },
  {
   "id": "wd-Q11603504",
   "name": "Tsukiyama Kofun (Itoshima)",
   "lat": 33.538783,
   "lng": 130.244817,
   "country_code": "JP",
   "category": "monumento",
   "type": "monumento",
   "wikidata": "Q11603504",
   "image_url": "http://commons.wikimedia.org/wiki/Special:FilePath/Tsukiyama%20Kohun.jpg",
   "unesco": false
  },
  {
   "id": "wd-Q11618016",
   "name": "Chausuyama Kofun",
   "lat": 34.651683,
   "lng": 135.512339,
   "country_code": "JP",
   "category": "monumento",
   "type": "monumento",
   "wikidata": "Q11618016",
   "image_url": "http://commons.wikimedia.org/wiki/Special:FilePath/Chausuyama%20%28Osaka%29%2C%20zenkei.jpg",
   "unesco": false
  },
  {
   "id": "wd-Q11632696",
   "name": "Yaguchiyama Kofun",
   "lat": 36.597556,
   "lng": 139.892861,
   "country_code": "JP",
   "category": "monumento",
   "type": "monumento",
   "wikidata": "Q11632696",
   "image_url": null,
   "unesco": false
  },
  {
   "id": "wd-Q11626191",
   "name": "Gyojazuka Kofun",
   "lat": 34.781944,
   "lng": 134.888472,
   "country_code": "JP",
   "category": "monumento",
   "type": "monumento",
   "wikidata": "Q11626191",
   "image_url": null,
   "unesco": false
  },
  {
   "id": "wd-Q11608505",
   "name": "Makimuku Ishizuka Kofun",
   "lat": 34.54625,
   "lng": 135.836083,
   "country_code": "JP",
   "category": "monumento",
   "type": "monumento",
   "wikidata": "Q11608505",
   "image_url": "http://commons.wikimedia.org/wiki/Special:FilePath/Makimuku%2Cishidukakofun.JPG",
   "unesco": false
  },
  {
   "id": "wd-Q11616248",
   "name": "Wakamiya-Hachiman Kofun",
   "lat": 36.026458,
   "lng": 139.369192,
   "country_code": "JP",
   "category": "monumento",
   "type": "monumento",
   "wikidata": "Q11616248",
   "image_url": "http://commons.wikimedia.org/wiki/Special:FilePath/Wakamiya-Hachiman%20Kofun%20%28Higashimatsuyama%29%2C%20funkyu-1.jpg",
   "unesco": false
  },
  {
   "id": "wd-Q11627539",
   "name": "Nishi Okute Kofun",
   "lat": 35.250722,
   "lng": 137.038928,
   "country_code": "JP",
   "category": "monumento",
   "type": "monumento",
   "wikidata": "Q11627539",
   "image_url": null,
   "unesco": false
  },
  {
   "id": "wd-Q11649845",
   "name": "Hachibuseyama Nishimine Kofun",
   "lat": 34.543285,
   "lng": 135.634635,
   "country_code": "JP",
   "category": "monumento",
   "type": "monumento",
   "wikidata": "Q11649845",
   "image_url": null,
   "unesco": false
  },
  {
   "id": "wd-Q11630214",
   "name": "Maruyama Kofun",
   "lat": 34.475867,
   "lng": 135.798328,
   "country_code": "JP",
   "category": "monumento",
   "type": "monumento",
   "wikidata": "Q11630214",
   "image_url": "http://commons.wikimedia.org/wiki/Special:FilePath/Maruyama%20Kofun%20%28Kashihara%29%2C%20zenkei-1.jpg",
   "unesco": true
  },
  {
   "id": "wd-Q11607131",
   "name": "Tsunashima Kofun",
   "lat": 35.539225,
   "lng": 139.635478,
   "country_code": "JP",
   "category": "monumento",
   "type": "monumento",
   "wikidata": "Q11607131",
   "image_url": null,
   "unesco": false
  },
  {
   "id": "wd-Q11660187",
   "name": "Raijinyama Kofun",
   "lat": 38.151167,
   "lng": 140.879667,
   "country_code": "JP",
   "category": "monumento",
   "type": "monumento",
   "wikidata": "Q11660187",
   "image_url": "http://commons.wikimedia.org/wiki/Special:FilePath/Aerial%20photo%20of%20Raijin-yama%20kofun%20tumulus%20in%201975.jpg",
   "unesco": true
  },
  {
   "id": "wd-Q11622625",
   "name": "Fujinomori Kofun",
   "lat": 34.563736,
   "lng": 135.604578,
   "country_code": "JP",
   "category": "monumento",
   "type": "monumento",
   "wikidata": "Q11622625",
   "image_url": null,
   "unesco": false
  },
  {
   "id": "wd-Q11603420",
   "name": "Hashihaka Kofun",
   "lat": 34.539261,
   "lng": 135.841228,
   "country_code": "JP",
   "category": "monumento",
   "type": "monumento",
   "wikidata": "Q11603420",
   "image_url": "http://commons.wikimedia.org/wiki/Special:FilePath/Hashihaka-kofun%20zenkei-2.jpg",
   "unesco": true
  },
  {
   "id": "wd-Q11650613",
   "name": "Nabezuka Kofun",
   "lat": 34.571389,
   "lng": 135.614611,
   "country_code": "JP",
   "category": "monumento",
   "type": "monumento",
   "wikidata": "Q11650613",
   "image_url": null,
   "unesco": true
  },
  {
   "id": "wd-Q11627823",
   "name": "Nishiyamazuka Kofun",
   "lat": 34.570278,
   "lng": 135.848672,
   "country_code": "JP",
   "category": "monumento",
   "type": "monumento",
   "wikidata": "Q11627823",
   "image_url": "http://commons.wikimedia.org/wiki/Special:FilePath/Nishiyamazuka%20Kofun%2C%20zenkei.jpg",
   "unesco": false
  },
  {
   "id": "wd-Q11625508",
   "name": "Hebizuka Kofun",
   "lat": 35.011972,
   "lng": 135.700167,
   "country_code": "JP",
   "category": "monumento",
   "type": "monumento",
   "wikidata": "Q11625508",
   "image_url": "http://commons.wikimedia.org/wiki/Special:FilePath/Hebizuka%20Kofun-2.JPG",
   "unesco": true
  },
  {
   "id": "wd-Q11603302",
   "name": "Yata Ōtsuka Kofun",
   "lat": 34.635606,
   "lng": 133.681322,
   "country_code": "JP",
   "category": "monumento",
   "type": "monumento",
   "wikidata": "Q11603302",
   "image_url": "http://commons.wikimedia.org/wiki/Special:FilePath/Yataotsuka%2002.JPG",
   "unesco": true
  },
  {
   "id": "wd-Q11626765",
   "name": "Uramachi Kofun",
   "lat": 38.222278,
   "lng": 140.861306,
   "country_code": "JP",
   "category": "monumento",
   "type": "monumento",
   "wikidata": "Q11626765",
   "image_url": null,
   "unesco": false
  },
  {
   "id": "wd-Q11610725",
   "name": "Minohara Kofun",
   "lat": 34.841836,
   "lng": 135.563736,
   "country_code": "JP",
   "category": "monumento",
   "type": "monumento",
   "wikidata": "Q11610725",
   "image_url": null,
   "unesco": false
  },
  {
   "id": "wd-Q11645194",
   "name": "Noguchi Royal Tomb",
   "lat": 34.468756,
   "lng": 135.807825,
   "country_code": "JP",
   "category": "monumento",
   "type": "monumento",
   "wikidata": "Q11645194",
   "image_url": "http://commons.wikimedia.org/wiki/Special:FilePath/NoguchiObo%20TenmuJito-ryo%20201909b.jpg",
   "unesco": false
  },
  {
   "id": "wd-Q11642726",
   "name": "Nagonoyama Kofun",
   "lat": 35.159719,
   "lng": 136.901062,
   "country_code": "JP",
   "category": "monumento",
   "type": "monumento",
   "wikidata": "Q11642726",
   "image_url": null,
   "unesco": false
  },
  {
   "id": "wd-Q11602518",
   "name": "Sasazuka Kofun",
   "lat": 36.476944,
   "lng": 139.901944,
   "country_code": "JP",
   "category": "monumento",
   "type": "monumento",
   "wikidata": "Q11602518",
   "image_url": null,
   "unesco": false
  },
  {
   "id": "wd-Q11620871",
   "name": "Kuzuhara Kofun",
   "lat": 33.540611,
   "lng": 131.336111,
   "country_code": "JP",
   "category": "monumento",
   "type": "monumento",
   "wikidata": "Q11620871",
   "image_url": null,
   "unesco": true
  },
  {
   "id": "wd-Q11647959",
   "name": "Kinreizuka Kofun",
   "lat": 35.387222,
   "lng": 139.932778,
   "country_code": "JP",
   "category": "monumento",
   "type": "monumento",
   "wikidata": "Q11647959",
   "image_url": "http://commons.wikimedia.org/wiki/Special:FilePath/Kinreizuka-1.jpg",
   "unesco": false
  },
  {
   "id": "wd-Q11599019",
   "name": "Takehara Kofun",
   "lat": 33.73325,
   "lng": 130.610139,
   "country_code": "JP",
   "category": "monumento",
   "type": "monumento",
   "wikidata": "Q11599019",
   "image_url": "http://commons.wikimedia.org/wiki/Special:FilePath/Takehara%20kofun%2004.jpg",
   "unesco": true
  },
  {
   "id": "wd-Q11607450",
   "name": "Watanuki Kannon-yama Kofun",
   "lat": 36.307222,
   "lng": 139.077222,
   "country_code": "JP",
   "category": "monumento",
   "type": "monumento",
   "wikidata": "Q11607450",
   "image_url": "http://commons.wikimedia.org/wiki/Special:FilePath/Watanuki%20Kannon-yama%20Kofun%2C%20funkyu-1.jpg",
   "unesco": true
  },
  {
   "id": "wd-Q11645747",
   "name": "Noge Ōtsuka Kofun",
   "lat": 35.605,
   "lng": 139.643083,
   "country_code": "JP",
   "category": "monumento",
   "type": "monumento",
   "wikidata": "Q11645747",
   "image_url": "http://commons.wikimedia.org/wiki/Special:FilePath/Noge-Otsuka%20Kofun.jpg",
   "unesco": true
  },
  {
   "id": "wd-Q11614601",
   "name": "Shiba Maruyama Kofun",
   "lat": 35.654625,
   "lng": 139.748075,
   "country_code": "JP",
   "category": "monumento",
   "type": "monumento",
   "wikidata": "Q11614601",
   "image_url": "http://commons.wikimedia.org/wiki/Special:FilePath/Shiba-maruyama-kofun%20zenkei.JPG",
   "unesco": false
  },
  {
   "id": "wd-Q11635409",
   "name": "Akasaka Tennōzan Kofun",
   "lat": 34.500417,
   "lng": 135.874583,
   "country_code": "JP",
   "category": "monumento",
   "type": "monumento",
   "wikidata": "Q11635409",
   "image_url": "http://commons.wikimedia.org/wiki/Special:FilePath/Akasaka%20Tennozan%20Kofun%2C%20enkei.jpg",
   "unesco": true
  },
  {
   "id": "wd-Q11649848",
   "name": "Hachizuka Kofun",
   "lat": 34.817694,
   "lng": 135.437083,
   "country_code": "JP",
   "category": "monumento",
   "type": "monumento",
   "wikidata": "Q11649848",
   "image_url": null,
   "unesco": false
  },
  {
   "id": "wd-Q11639745",
   "name": "Tsukuriyama Ancient Burial Mound",
   "lat": 34.673786,
   "lng": 133.803708,
   "country_code": "JP",
   "category": "monumento",
   "type": "monumento",
   "wikidata": "Q11639745",
   "image_url": "http://commons.wikimedia.org/wiki/Special:FilePath/Tsukuriyama%20Kofun%2C%20Okayama%20air.jpg",
   "unesco": false
  },
  {
   "id": "wd-Q11649597",
   "name": "Teppōyama Kofun",
   "lat": 36.123814,
   "lng": 139.478211,
   "country_code": "JP",
   "category": "monumento",
   "type": "monumento",
   "wikidata": "Q11649597",
   "image_url": "http://commons.wikimedia.org/wiki/Special:FilePath/Teppoyama%20kofun.JPG",
   "unesco": false
  },
  {
   "id": "wd-Q11626169",
   "name": "Andon-yama Kofun",
   "lat": 34.557458,
   "lng": 135.849094,
   "country_code": "JP",
   "category": "monumento",
   "type": "monumento",
   "wikidata": "Q11626169",
   "image_url": "http://commons.wikimedia.org/wiki/Special:FilePath/Andon-yama%20Kofun%2C%20zenkei.jpg",
   "unesco": false
  },
  {
   "id": "wd-Q11628958",
   "name": "Nishimotomezuka Kofun",
   "lat": 34.705106,
   "lng": 135.226503,
   "country_code": "JP",
   "category": "monumento",
   "type": "monumento",
   "wikidata": "Q11628958",
   "image_url": null,
   "unesco": true
  },
  {
   "id": "wd-Q11642380",
   "name": "Tōmizuka Kofun",
   "lat": 38.238211,
   "lng": 140.914444,
   "country_code": "JP",
   "category": "monumento",
   "type": "monumento",
   "wikidata": "Q11642380",
   "image_url": "http://commons.wikimedia.org/wiki/Special:FilePath/Toomizuka-kofun%20zenkei.JPG",
   "unesco": true
  },
  {
   "id": "wd-Q11605767",
   "name": "Shikinzan Kofun",
   "lat": 34.844222,
   "lng": 135.546056,
   "country_code": "JP",
   "category": "monumento",
   "type": "monumento",
   "wikidata": "Q11605767",
   "image_url": "http://commons.wikimedia.org/wiki/Special:FilePath/Shikinzan%20Kofun%2C%20funcho.jpg",
   "unesco": false
  },
  {
   "id": "wd-Q11625282",
   "name": "Torazuka Kofun",
   "lat": 36.373528,
   "lng": 140.569639,
   "country_code": "JP",
   "category": "monumento",
   "type": "monumento",
   "wikidata": "Q11625282",
   "image_url": "http://commons.wikimedia.org/wiki/Special:FilePath/Torazuka%20Kofun%2C%20funkyu.jpg",
   "unesco": true
  },
  {
   "id": "wd-Q11607242",
   "name": "Amino Choshiyama Kofun",
   "lat": 35.678056,
   "lng": 135.029722,
   "country_code": "JP",
   "category": "monumento",
   "type": "monumento",
   "wikidata": "Q11607242",
   "image_url": null,
   "unesco": false
  },
  {
   "id": "wd-Q11619951",
   "name": "Ayamezuka Kofun",
   "lat": 37.766986,
   "lng": 138.865711,
   "country_code": "JP",
   "category": "monumento",
   "type": "monumento",
   "wikidata": "Q11619951",
   "image_url": null,
   "unesco": true
  },
  {
   "id": "wd-Q11603502",
   "name": "Tsukiyama Kofun",
   "lat": 34.679583,
   "lng": 134.137333,
   "country_code": "JP",
   "category": "monumento",
   "type": "monumento",
   "wikidata": "Q11603502",
   "image_url": null,
   "unesco": false
  },
  {
   "id": "wd-Q11656592",
   "name": "Tsugeyama Kofun",
   "lat": 34.854444,
   "lng": 135.584722,
   "country_code": "JP",
   "category": "monumento",
   "type": "monumento",
   "wikidata": "Q11656592",
   "image_url": null,
   "unesco": true
  },
  {
   "id": "wd-Q11652134",
   "name": "Nagaoka Hyakuana",
   "lat": 36.593056,
   "lng": 139.884167,
   "country_code": "JP",
   "category": "monumento",
   "type": "monumento",
   "wikidata": "Q11652134",
   "image_url": null,
   "unesco": false
  },
  {
   "id": "wd-Q11651650",
   "name": "Nagatsuka Kofun",
   "lat": 34.557667,
   "lng": 135.4875,
   "country_code": "JP",
   "category": "monumento",
   "type": "monumento",
   "wikidata": "Q11651650",
   "image_url": "http://commons.wikimedia.org/wiki/Special:FilePath/Nagatsuka%20Kofun%20%28Sakai%2C%20Osaka%29.JPG",
   "unesco": true
  },
  {
   "id": "wd-Q11618007",
   "name": "Chausuzuka Kofun",
   "lat": 34.56925,
   "lng": 135.644306,
   "country_code": "JP",
   "category": "monumento",
   "type": "monumento",
   "wikidata": "Q11618007",
   "image_url": null,
   "unesco": false
  },
  {
   "id": "wd-Q11612067",
   "name": "Nobono Ōtsuka Kofun",
   "lat": 34.884544,
   "lng": 136.481969,
   "country_code": "JP",
   "category": "monumento",
   "type": "monumento",
   "wikidata": "Q11612067",
   "image_url": "http://commons.wikimedia.org/wiki/Special:FilePath/Nobono%20Otsuka%20Kofun%20zenkei.JPG",
   "unesco": false
  },
  {
   "id": "wd-Q11611811",
   "name": "Gomate-dai 16-gō Kofun",
   "lat": 35.64,
   "lng": 140.398611,
   "country_code": "JP",
   "category": "monumento",
   "type": "monumento",
   "wikidata": "Q11611811",
   "image_url": null,
   "unesco": false
  },
  {
   "id": "wd-Q11651651",
   "name": "Nagatsuka Kofun",
   "lat": 35.431111,
   "lng": 137.068611,
   "country_code": "JP",
   "category": "monumento",
   "type": "monumento",
   "wikidata": "Q11651651",
   "image_url": "http://commons.wikimedia.org/wiki/Special:FilePath/Nagatsuka%20Kofun%2C%20Nakaedo%20Kani%202018.jpg",
   "unesco": true
  },
  {
   "id": "wd-Q11645006",
   "name": "Nonaka Miyama Kofun",
   "lat": 34.56025,
   "lng": 135.602361,
   "country_code": "JP",
   "category": "monumento",
   "type": "monumento",
   "wikidata": "Q11645006",
   "image_url": null,
   "unesco": false
  },
  {
   "id": "wd-Q11659952",
   "name": "Yukinoyama Kofun",
   "lat": 35.07645,
   "lng": 136.145819,
   "country_code": "JP",
   "category": "monumento",
   "type": "monumento",
   "wikidata": "Q11659952",
   "image_url": null,
   "unesco": true
  },
  {
   "id": "wd-Q11629965",
   "name": "Sairyo Kofun",
   "lat": 34.327031,
   "lng": 135.169011,
   "country_code": "JP",
   "category": "monumento",
   "type": "monumento",
   "wikidata": "Q11629965",
   "image_url": null,
   "unesco": false
  },
  {
   "id": "wd-Q11657465",
   "name": "Abuyama Kofun",
   "lat": 34.863333,
   "lng": 135.569389,
   "country_code": "JP",
   "category": "monumento",
   "type": "monumento",
   "wikidata": "Q11657465",
   "image_url": null,
   "unesco": true
  },
  {
   "id": "wd-Q11608502",
   "name": "Makimuku Katsuyama Kofun",
   "lat": 34.547417,
   "lng": 135.834778,
   "country_code": "JP",
   "category": "monumento",
   "type": "monumento",
   "wikidata": "Q11608502",
   "image_url": "http://commons.wikimedia.org/wiki/Special:FilePath/Katsuyama%2Cmakimuku.JPG",
   "unesco": false
  },
  {
   "id": "wd-Q11646971",
   "name": "Kanayama Kofun",
   "lat": 34.469392,
   "lng": 135.630331,
   "country_code": "JP",
   "category": "monumento",
   "type": "monumento",
   "wikidata": "Q11646971",
   "image_url": null,
   "unesco": true
  },
  {
   "id": "wd-Q11630638",
   "name": "Kan'non-yama Kofun",
   "lat": 37.748333,
   "lng": 138.835,
   "country_code": "JP",
   "category": "monumento",
   "type": "monumento",
   "wikidata": "Q11630638",
   "image_url": null,
   "unesco": true
  },
  {
   "id": "wd-Q11651607",
   "name": "Nagasaka Futagozuka Kofun",
   "lat": 36.534092,
   "lng": 136.656833,
   "country_code": "JP",
   "category": "monumento",
   "type": "monumento",
   "wikidata": "Q11651607",
   "image_url": null,
   "unesco": false
  },
  {
   "id": "wd-Q11626417",
   "name": "Ishouzuka Kofun",
   "lat": 35.405,
   "lng": 136.929056,
   "country_code": "JP",
   "category": "monumento",
   "type": "monumento",
   "wikidata": "Q11626417",
   "image_url": null,
   "unesco": false
  },
  {
   "id": "wd-Q11630689",
   "name": "Tsunozuka Kofun",
   "lat": 39.141506,
   "lng": 141.09375,
   "country_code": "JP",
   "category": "monumento",
   "type": "monumento",
   "wikidata": "Q11630689",
   "image_url": "http://commons.wikimedia.org/wiki/Special:FilePath/Tsunozuka-kofun%20zenkei.JPG",
   "unesco": true
  },
  {
   "id": "wd-Q17220560",
   "name": "Suribachiyama Kofun",
   "lat": 35.713806,
   "lng": 139.773972,
   "country_code": "JP",
   "category": "monumento",
   "type": "monumento",
   "wikidata": "Q17220560",
   "image_url": "http://commons.wikimedia.org/wiki/Special:FilePath/Suribachiyama%20Kofun.jpg",
   "unesco": false
  },
  {
   "id": "wd-Q11675868",
   "name": "Tsurugaoka Inari-jinja Kofun",
   "lat": 35.924639,
   "lng": 139.418944,
   "country_code": "JP",
   "category": "monumento",
   "type": "monumento",
   "wikidata": "Q11675868",
   "image_url": null,
   "unesco": false
  },
  {
   "id": "wd-Q17221412",
   "name": "Maefutago Kofun",
   "lat": 36.386167,
   "lng": 139.196167,
   "country_code": "JP",
   "category": "monumento",
   "type": "monumento",
   "wikidata": "Q17221412",
   "image_url": "http://commons.wikimedia.org/wiki/Special:FilePath/Maefutago-kofun%201.jpg",
   "unesco": true
  },
  {
   "id": "wd-Q17221378",
   "name": "Maebashi-futagoyama-kofun",
   "lat": 36.3765,
   "lng": 139.088639,
   "country_code": "JP",
   "category": "monumento",
   "type": "monumento",
   "wikidata": "Q17221378",
   "image_url": null,
   "unesco": true
  },
  {
   "id": "wd-Q17219916",
   "name": "Gogazuka Kofun",
   "lat": 34.766028,
   "lng": 135.414589,
   "country_code": "JP",
   "category": "monumento",
   "type": "monumento",
   "wikidata": "Q17219916",
   "image_url": "http://commons.wikimedia.org/wiki/Special:FilePath/%E5%BE%A1%E9%A1%98%E5%A1%9A%E4%B8%BB%E5%A2%B3%E3%81%AE%E5%B8%86%E7%AB%8B%E8%B2%9D%E5%BC%8F%E5%8F%A4%E5%A2%B3%E3%82%92%E7%A4%BA%E3%81%99%E5%A0%80%E3%81%AE%E3%81%8F%E3%81%B3%E3%82%8C%E9%83%A8%E5%88%86%E3%81%AE%E5%86%99%E7%9C%9F.jpg",
   "unesco": false
  },
  {
   "id": "wd-Q11664581",
   "name": "Susoezoana Kofun",
   "lat": 37.107667,
   "lng": 136.966778,
   "country_code": "JP",
   "category": "monumento",
   "type": "monumento",
   "wikidata": "Q11664581",
   "image_url": "http://commons.wikimedia.org/wiki/Special:FilePath/Ezosusoanakohun.JPG",
   "unesco": true
  },
  {
   "id": "wd-Q11673420",
   "name": "Onizuka Kofun (Kunisaki)",
   "lat": 33.677778,
   "lng": 131.582889,
   "country_code": "JP",
   "category": "monumento",
   "type": "monumento",
   "wikidata": "Q11673420",
   "image_url": null,
   "unesco": true
  },
  {
   "id": "wd-Q17227988",
   "name": "Okumayama Kofun",
   "lat": 36.018889,
   "lng": 139.43,
   "country_code": "JP",
   "category": "monumento",
   "type": "monumento",
   "wikidata": "Q17227988",
   "image_url": null,
   "unesco": false
  },
  {
   "id": "wd-Q11674888",
   "name": "Toriibara Kitsunezuka Kofun",
   "lat": 35.576056,
   "lng": 138.545833,
   "country_code": "JP",
   "category": "monumento",
   "type": "monumento",
   "wikidata": "Q11674888",
   "image_url": null,
   "unesco": false
  },
  {
   "id": "wd-Q17193420",
   "name": "Inariyama Kofun",
   "lat": 35.3171,
   "lng": 136.014278,
   "country_code": "JP",
   "category": "monumento",
   "type": "monumento",
   "wikidata": "Q17193420",
   "image_url": "http://commons.wikimedia.org/wiki/Special:FilePath/Kamo-inariyama-kofun.JPG",
   "unesco": false
  },
  {
   "id": "wd-Q11673383",
   "name": "Oni-no-iwa Kofun",
   "lat": 33.315667,
   "lng": 131.492306,
   "country_code": "JP",
   "category": "monumento",
   "type": "monumento",
   "wikidata": "Q11673383",
   "image_url": null,
   "unesco": false
  },
  {
   "id": "wd-Q11669285",
   "name": "Takaya Tsukiyama Kofun",
   "lat": 34.548889,
   "lng": 135.609617,
   "country_code": "JP",
   "category": "monumento",
   "type": "monumento",
   "wikidata": "Q11669285",
   "image_url": "http://commons.wikimedia.org/wiki/Special:FilePath/Takaya%20Tsukiyama%20Kofun%2C%20haisho.jpg",
   "unesco": false
  },
  {
   "id": "wd-Q17221367",
   "name": "Maebashi-tenjinnyama-kofun",
   "lat": 36.364917,
   "lng": 139.103944,
   "country_code": "JP",
   "category": "monumento",
   "type": "monumento",
   "wikidata": "Q17221367",
   "image_url": null,
   "unesco": false
  },
  {
   "id": "wd-Q11678079",
   "name": "Kurohimeyama Kofun",
   "lat": 34.545614,
   "lng": 135.557647,
   "country_code": "JP",
   "category": "monumento",
   "type": "monumento",
   "wikidata": "Q11678079",
   "image_url": "http://commons.wikimedia.org/wiki/Special:FilePath/%E9%BB%92%E5%A7%AB%E5%B1%B1%E5%8F%A4%E5%A2%B3%EF%BC%88%E5%BE%8C%E5%86%86%E9%83%A8%EF%BC%89.jpg",
   "unesco": true
  },
  {
   "id": "wd-Q11668363",
   "name": "Komagata Otsuka Kofun",
   "lat": 36.761667,
   "lng": 140.120556,
   "country_code": "JP",
   "category": "monumento",
   "type": "monumento",
   "wikidata": "Q11668363",
   "image_url": null,
   "unesco": false
  },
  {
   "id": "wd-Q17214570",
   "name": "Asakozuka Kofun",
   "lat": 36.260806,
   "lng": 139.361278,
   "country_code": "JP",
   "category": "monumento",
   "type": "monumento",
   "wikidata": "Q17214570",
   "image_url": null,
   "unesco": false
  },
  {
   "id": "wd-Q17219269",
   "name": "Motoshima Shōgunzuka Kofun",
   "lat": 36.323175,
   "lng": 139.068967,
   "country_code": "JP",
   "category": "monumento",
   "type": "monumento",
   "wikidata": "Q17219269",
   "image_url": "http://commons.wikimedia.org/wiki/Special:FilePath/Motoshimana%20Shogunzuka%20Kofun%2C%20funkyu-2.jpg",
   "unesco": false
  },
  {
   "id": "wd-Q17222973",
   "name": "Sōja Futagoyama Kofun",
   "lat": 36.411389,
   "lng": 139.034806,
   "country_code": "JP",
   "category": "monumento",
   "type": "monumento",
   "wikidata": "Q17222973",
   "image_url": null,
   "unesco": true
  },
  {
   "id": "wd-Q17211803",
   "name": "Tanaka-Funamori-Yama Kofun",
   "lat": 37.601472,
   "lng": 139.913472,
   "country_code": "JP",
   "category": "monumento",
   "type": "monumento",
   "wikidata": "Q17211803",
   "image_url": null,
   "unesco": false
  },
  {
   "id": "wd-Q11674961",
   "name": "Toriya Misanzai Kofun",
   "lat": 34.478253,
   "lng": 135.779953,
   "country_code": "JP",
   "category": "monumento",
   "type": "monumento",
   "wikidata": "Q11674961",
   "image_url": "http://commons.wikimedia.org/wiki/Special:FilePath/Toriya%20Misanzai%20Kofun%2C%20zenkei.jpg",
   "unesco": false
  },
  {
   "id": "wd-Q17209615",
   "name": "Yokotsukayama Kofun",
   "lat": 36.19465,
   "lng": 139.370078,
   "country_code": "JP",
   "category": "monumento",
   "type": "monumento",
   "wikidata": "Q17209615",
   "image_url": null,
   "unesco": false
  },
  {
   "id": "wd-Q17220290",
   "name": "Sumikomorida kofun",
   "lat": 35.72175,
   "lng": 140.279444,
   "country_code": "JP",
   "category": "monumento",
   "type": "monumento",
   "wikidata": "Q17220290",
   "image_url": "http://commons.wikimedia.org/wiki/Special:FilePath/Sumikomorida%20Kofun.JPG",
   "unesco": false
  },
  {
   "id": "wd-Q17216710",
   "name": "Bentenyama Kofun",
   "lat": 35.281833,
   "lng": 139.858306,
   "country_code": "JP",
   "category": "monumento",
   "type": "monumento",
   "wikidata": "Q17216710",
   "image_url": null,
   "unesco": true
  },
  {
   "id": "wd-Q17215924",
   "name": "Shofutago Kofun",
   "lat": 36.389589,
   "lng": 139.193758,
   "country_code": "JP",
   "category": "monumento",
   "type": "monumento",
   "wikidata": "Q17215924",
   "image_url": "http://commons.wikimedia.org/wiki/Special:FilePath/Shofutago-kofun%202.jpg",
   "unesco": false
  },
  {
   "id": "wd-Q11669270",
   "name": "Takaya Hachiman-yama Kofun",
   "lat": 34.546536,
   "lng": 135.610336,
   "country_code": "JP",
   "category": "monumento",
   "type": "monumento",
   "wikidata": "Q11669270",
   "image_url": null,
   "unesco": false
  },
  {
   "id": "wd-Q17211898",
   "name": "Raidenyama Kofun (Higashimatsuyama)",
   "lat": 36.087167,
   "lng": 139.388278,
   "country_code": "JP",
   "category": "monumento",
   "type": "monumento",
   "wikidata": "Q17211898",
   "image_url": null,
   "unesco": false
  },
  {
   "id": "wd-Q17218723",
   "name": "Hachimanyama Kofun",
   "lat": 35.153642,
   "lng": 136.923997,
   "country_code": "JP",
   "category": "monumento",
   "type": "monumento",
   "wikidata": "Q17218723",
   "image_url": "http://commons.wikimedia.org/wiki/Special:FilePath/Hachimanyama%20kofun-Aichi01.jpg",
   "unesco": true
  },
  {
   "id": "wd-Q11668153",
   "name": "Danotsuka Kofun",
   "lat": 35.616667,
   "lng": 140.389722,
   "country_code": "JP",
   "category": "monumento",
   "type": "monumento",
   "wikidata": "Q11668153",
   "image_url": null,
   "unesco": false
  },
  {
   "id": "wd-Q17194124",
   "name": "Ushirofutago Kofun",
   "lat": 36.388861,
   "lng": 139.194222,
   "country_code": "JP",
   "category": "monumento",
   "type": "monumento",
   "wikidata": "Q17194124",
   "image_url": "http://commons.wikimedia.org/wiki/Special:FilePath/Ushirofutago-kofun%201.jpg",
   "unesco": false
  },
  {
   "id": "wd-Q17222794",
   "name": "Senryū Shōgunzuka Kofun",
   "lat": 36.569722,
   "lng": 138.109444,
   "country_code": "JP",
   "category": "monumento",
   "type": "monumento",
   "wikidata": "Q17222794",
   "image_url": null,
   "unesco": false
  },
  {
   "id": "wd-Q17213450",
   "name": "Funazuka-kofun",
   "lat": 33.313475,
   "lng": 130.241383,
   "country_code": "JP",
   "category": "monumento",
   "type": "monumento",
   "wikidata": "Q17213450",
   "image_url": null,
   "unesco": true
  },
  {
   "id": "wd-Q17210019",
   "name": "Nikiyama Kofun",
   "lat": 34.550742,
   "lng": 135.737325,
   "country_code": "JP",
   "category": "monumento",
   "type": "monumento",
   "wikidata": "Q17210019",
   "image_url": null,
   "unesco": false
  },
  {
   "id": "wd-Q17219072",
   "name": "Suguro Jinja Kofun",
   "lat": 35.975583,
   "lng": 139.42375,
   "country_code": "JP",
   "category": "monumento",
   "type": "monumento",
   "wikidata": "Q17219072",
   "image_url": null,
   "unesco": false
  },
  {
   "id": "wd-Q17211679",
   "name": "Kinegamori-kofun",
   "lat": 37.566314,
   "lng": 139.809692,
   "country_code": "JP",
   "category": "monumento",
   "type": "monumento",
   "wikidata": "Q17211679",
   "image_url": null,
   "unesco": false
  },
  {
   "id": "wd-Q17219563",
   "name": "Dogasakuyama Kofun",
   "lat": 37.508583,
   "lng": 139.957806,
   "country_code": "JP",
   "category": "monumento",
   "type": "monumento",
   "wikidata": "Q17219563",
   "image_url": null,
   "unesco": false
  },